# 
# Header Description:
# 
# Version: 1.4.0.0, Platform: N
# 
# Raw,ElapsedRealtimeMillis,TimeNanos,LeapSecond,TimeUncertaintyNanos,FullBiasNanos,BiasNanos,BiasUncertaintyNanos,DriftNanosPerSecond,DriftUncertaintyNanosPerSecond,HardwareClockDiscontinuityCount, Svid,TimeOffsetNanos,State,ReceivedSvTimeNanos,ReceivedSvTimeUncertaintyNanos,Cn0DbHz,PseudorangeRateMetersPerSecond,PseudorangeRateUncertaintyMetersPerSecond,AccumulatedDeltaRangeState,AccumulatedDeltaRangeMeters,AccumulatedDeltaRangeUncertaintyMeters,CarrierFrequencyHz,CarrierCycles,CarrierPhase,CarrierPhaseUncertainty,MultipathIndicator,SnrInDb,ConstellationType
# 
# Fix,Provider,Latitude,Longitude,Altitude,Speed,Accuracy,(UTC)TimeInMs
# 
# Nav,Svid,Type,Status,MessageId,Sub-messageId,Data(Bytes)
# 
Fix,gps,53.071005,-1.389561,185.045979,0.000000,6.000000,1493643050000
Raw,342493991,11207000000,,,-1177678256793199162,0.0,8.245159279240605,,,0,2,0.0,39,132667919539407,166,28.230058670043945,-331.68682005714277,0.18432587966745717,1,-2391.6541037718353,0.003321134950965643,,,,,1,,1
Raw,342493992,11207000000,,,-1177678256793199162,0.0,8.245159279240605,,,0,3,0.0,16,11015074655,1000000000,26.68175506591797,-141.30596699094144,2.99792458E8,2,-1.8333931524852005,3.4028234663852886E38,,,,,0,,1
Raw,342493992,11207000000,,,-1177678256793199162,0.0,8.245159279240605,,,0,6,0.0,39,132667921285367,17,34.65631103515625,-40.03003263955168,0.0865117590043114,1,-377.9329560540056,0.0016809323569759727,,,,,0,,1
Raw,342493993,11207000000,,,-1177678256793199162,0.0,8.245159279240605,,,0,12,0.0,39,132667932501064,17,34.65217971801758,384.33917118131944,0.0885702112362407,1,3531.832094045559,0.0016817316645756364,,,,,0,,1
Raw,342493993,11207000000,,,-1177678256793199162,0.0,8.245159279240605,,,0,14,0.0,39,132667925209133,8,41.2318229675293,-212.54373727543054,0.04140737636733463,1,-1967.1772873615807,8.310999837704003E-4,,,,,0,,1
Raw,342493994,11207000000,,,-1177678256793199162,0.0,8.245159279240605,,,0,19,0.0,39,132667919776526,17,34.49818420410156,771.1324837270204,0.09142297775031538,1,7095.566143311596,0.0017118139658123255,,,,,0,,1
Raw,342493994,11207000000,,,-1177678256793199162,0.0,8.245159279240605,,,0,22,0.0,39,132667915648379,11,38.19017028808594,118.07141106003724,0.060255482400095234,1,1077.880364238955,0.0011190699879080057,,,,,0,,1
Raw,342493995,11207000000,,,-1177678256793199162,0.0,8.245159279240605,,,0,24,0.0,39,132667926769381,8,40.43777847290039,653.896808583379,0.04556211185867881,1,6016.064035612074,9.106583311222494E-4,,,,,0,,1
Raw,342493995,11207000000,,,-1177678256793199162,0.0,8.245159279240605,,,0,25,0.0,39,132667931239141,9,40.048789978027344,-183.31651413780537,0.04839717147151312,1,-1697.5851187508858,9.523683693259954E-4,,,,,0,,1
Raw,342493996,11207000000,,,-1177678256793199162,0.0,8.245159279240605,,,0,29,0.0,39,132667921172199,166,33.92544174194336,-620.4148167795875,0.09406561626766874,1,-5722.049666034921,0.0018284942489117384,,,,,1,,1
Raw,342493996,11207000000,,,-1177678256793199162,0.0,8.245159279240605,,,0,31,0.0,39,132667919804692,34,28.837520599365234,-521.2850717566673,0.17216035649862838,1,-4809.906633075377,0.0030968019273132086,,,,,0,,1
Raw,342493997,11207000000,,,-1177678256793199162,0.0,8.245159279240605,,,0,32,0.0,17,7852937,15,35.89570999145508,126.95081121055546,0.07621965594199742,4,102.36321648738418,3.4028234663852886E38,,,,,0,,1
Raw,342493998,11207000000,,,-1177678256793199162,0.0,8.245159279240605,,,0,97,0.0,99,19933059846,33,35.446475982666016,-230.69624107299023,0.08112708035202132,1,-719.8298671541726,0.0015108920633792877,,,,,0,,3
Raw,342493998,11207000000,,,-1177678256793199162,0.0,8.245159279240605,,,0,99,0.0,99,19934939422,83,27.132930755615234,338.3214132912426,0.20784214227886633,4,2758.169634536771,3.4028234663852886E38,,,,,0,,3
Raw,342493998,11207000000,,,-1177678256793199162,0.0,8.245159279240605,,,0,100,0.0,17,3820083,59,30.057411193847656,769.8401451405884,0.14719395858620132,4,3228.882426378831,3.4028234663852886E38,,,,,0,,3
Raw,342493999,11207000000,,,-1177678256793199162,0.0,8.245159279240605,,,0,103,0.0,16,11002676983,1000000000,25.066402435302734,-754.7697008451582,2.99792458E8,2,-1.5269096419773964,3.4028234663852886E38,,,,,0,,3
Raw,342494001,11207000000,,,-1177678256793199162,0.0,8.245159279240605,,,0,104,0.0,99,19928693655,33,37.51932144165039,578.6423355915354,0.06721423218071743,1,4734.97980213035,0.00118720019236207,,,,,0,,3
Raw,342494001,11207000000,,,-1177678256793199162,0.0,8.245159279240605,,,0,106,0.0,99,19925542816,33,35.77873992919922,-171.40331524359397,0.08041585869947476,1,-724.1626388893334,0.0014496014919131994,,,,,0,,3
Fix,gps,53.071005,-1.389551,182.644212,0.000000,6.000000,1493643051000
Raw,342494981,12207000000,,,-1177678256793198778,0.0,8.407524189461107,,,0,2,0.0,39,132668919540495,37,28.09245491027832,-331.54469621344265,0.1872133693482969,1,-2723.2554990057915,0.0033741674851626158,,,,,0,,1
Raw,342494982,12207000000,,,-1177678256793198778,0.0,8.407524189461107,,,0,3,0.0,16,12015075126,1000000000,25.001338958740234,-141.30596699094144,2.99792458E8,2,-2.1151763169644853,3.4028234663852886E38,,,,,0,,1
Raw,342494982,12207000000,,,-1177678256793198778,0.0,8.407524189461107,,,0,6,0.0,39,132668921285513,21,32.72678756713867,-39.782555662432486,0.10797419581099504,1,-417.78755594877134,0.002099066972732544,,,,,0,,1
Raw,342494983,12207000000,,,-1177678256793198778,0.0,8.407524189461107,,,0,12,0.0,39,132668932499724,20,33.161338806152344,384.4933261321721,0.1047336747866755,1,3916.2394478840183,0.001996635226532817,,,,,0,,1
Raw,342494983,12207000000,,,-1177678256793198778,0.0,8.407524189461107,,,0,14,0.0,39,132668925209834,8,40.892669677734375,-212.36688340853368,0.04301897480985567,1,-2179.647687951671,8.641936583444476E-4,,,,,0,,1
Raw,342494983,12207000000,,,-1177678256793198778,0.0,8.407524189461107,,,0,19,0.0,39,132668919773933,18,34.3653678894043,771.2479550897197,0.09277639076749022,1,7866.70042249513,0.0017381904181092978,,,,,0,,1
Raw,342494984,12207000000,,,-1177678256793198778,0.0,8.407524189461107,,,0,22,0.0,39,132668915647978,11,38.34886932373047,118.26010858057577,0.05921543493776635,1,1196.0414586827508,0.0010988089488819242,,,,,0,,1
Raw,342494984,12207000000,,,-1177678256793198778,0.0,8.407524189461107,,,0,24,0.0,39,132668926767194,12,37.47785186767578,654.0370238095138,0.06356715138449737,1,6670.031028843566,0.0012147115776315331,,,,,0,,1
Raw,342494984,12207000000,,,-1177678256793198778,0.0,8.407524189461107,,,0,25,0.0,39,132668931239850,10,39.12389373779297,-183.12219301194057,0.05360799714397915,1,-1880.807522046412,0.001005011610686779,,,,,0,,1
Raw,342494984,12207000000,,,-1177678256793198778,0.0,8.407524189461107,,,0,29,0.0,39,132668921174357,21,32.83701705932617,-620.2834629921485,0.10659555378791757,1,-6342.420034412755,0.001954063307493925,,,,,0,,1
Raw,342494985,12207000000,,,-1177678256793198778,0.0,8.407524189461107,,,0,31,0.0,39,132668919806425,38,27.678733825683594,-521.2366746684049,0.19622275386380172,1,-5331.215482552575,0.0035387740936130285,,,,,0,,1
Raw,342494985,12207000000,,,-1177678256793198778,0.0,8.407524189461107,,,0,32,0.0,17,7852545,14,36.15882873535156,127.60098519241285,0.07398747970438374,4,0.8951672580984251,3.4028234663852886E38,,,,,0,,1
Raw,342494986,12207000000,,,-1177678256793198778,0.0,8.407524189461107,,,0,97,0.0,99,20933060575,47,31.957046508789062,-230.46637194497214,0.12007628866584108,1,-950.3585515354346,0.002128769876435399,,,,,0,,3
Raw,342494987,12207000000,,,-1177678256793198778,0.0,8.407524189461107,,,0,98,0.0,16,711372911,1000000000,28.428327560424805,-380.5575181353745,2.99792458E8,6,-270.5888397528946,3.4028234663852886E38,,,,,0,,3
Raw,342494988,12207000000,,,-1177678256793198778,0.0,8.407524189461107,,,0,99,0.0,99,20934938326,112,24.50200653076172,338.13934480849775,0.2804204338913505,4,3095.7444421305545,3.4028234663852886E38,,,,,0,,3
Raw,342494989,12207000000,,,-1177678256793198778,0.0,8.407524189461107,,,0,100,0.0,17,3817447,61,29.705137252807617,769.1045775639132,0.15325752382608493,1,3997.923230234936,0.002755918772891164,,,,,0,,3
Raw,342494989,12207000000,,,-1177678256793198778,0.0,8.407524189461107,,,0,103,0.0,16,12002679499,1000000000,22.346450805664062,-754.1309274450077,2.99792458E8,2,-1.513811121364467,3.4028234663852886E38,,,,,0,,3
Raw,342494991,12207000000,,,-1177678256793198778,0.0,8.407524189461107,,,0,104,0.0,99,20928691751,33,37.05396270751953,578.9679593811543,0.07062913456278808,1,5313.806207794071,0.0012525409692898393,,,,,0,,3
Raw,342494992,12207000000,,,-1177678256793198778,0.0,8.407524189461107,,,0,106,0.0,99,20925543421,35,34.48198699951172,-171.17169086906495,0.09262430945453431,1,-895.4679048561624,0.001683008042164147,,,,,0,,3
Nav,100,769,1,-1,11,93,-19,91,36,28,52,-65,-53,-66,103,8
Nav,104,769,1,-1,11,93,-19,91,36,28,52,-65,-53,-66,103,8
Nav,106,769,1,-1,11,93,-19,91,36,28,52,-65,-53,-66,103,8
Fix,gps,53.071004,-1.389545,180.521553,0.000000,6.000000,1493643052000
Raw,342496022,13207000000,,,-1177678256793198395,0.0,8.412465256497416,,,0,2,0.0,39,132669919541622,42,26.94139862060547,-331.10152203127655,0.21324401193583808,1,-3054.626437367145,0.0038522949907928705,,,,,0,,1
Raw,342496023,13207000000,,,-1177678256793198395,0.0,8.412465256497416,,,0,3,0.0,16,13015075598,1000000000,30.234477996826172,-141.30596699094144,2.99792458E8,2,-2.118491412993992,3.4028234663852886E38,,,,,0,,1
Raw,342496023,13207000000,,,-1177678256793198395,0.0,8.412465256497416,,,0,6,0.0,39,132669921285593,16,35.139373779296875,-39.66578916638534,0.08184430138229076,1,-457.4955169538683,0.001589999534189701,,,,,0,,1
Raw,342496024,13207000000,,,-1177678256793198395,0.0,8.412465256497416,,,0,12,0.0,39,132669932498485,15,35.740562438964844,384.5711704628702,0.07840350432133852,1,4300.737781753269,0.0014836711343377829,,,,,0,,1
Raw,342496024,13207000000,,,-1177678256793198395,0.0,8.412465256497416,,,0,14,0.0,39,132669925210543,9,39.90346908569336,-212.063310968285,0.04809519308506352,1,-2391.9733337439493,9.684361866675317E-4,,,,,0,,1
Raw,342496025,13207000000,,,-1177678256793198395,0.0,8.412465256497416,,,0,19,0.0,39,132669919771354,14,36.338619232177734,771.2478187598936,0.07464457382282852,1,8637.948851240419,0.0013849519891664386,,,,,0,,1
Raw,342496045,13207000000,,,-1177678256793198395,0.0,8.412465256497416,,,0,22,0.0,39,132669915647579,13,36.869991302490234,118.40973908532504,0.06968422009006497,1,1314.354800973779,0.0013027653330937028,,,,,0,,1
Raw,342496045,13207000000,,,-1177678256793198395,0.0,8.412465256497416,,,0,24,0.0,39,132669926764981,16,35.0557746887207,654.0312297919049,0.08361922685065604,1,7323.991224963694,0.001513563678599894,,,,,0,,1
Raw,342496050,13207000000,,,-1177678256793198395,0.0,8.412465256497416,,,0,25,0.0,39,132669931240431,9,39.613582611083984,-183.08275960974368,0.050780251613001176,1,-2063.9272482200467,9.499189327470958E-4,,,,,0,,1
Raw,342496051,13207000000,,,-1177678256793198395,0.0,8.412465256497416,,,0,29,0.0,39,132669921176409,23,32.1654167175293,-620.058450614185,0.11514799540792675,1,-6962.719925081428,0.002111147390678525,,,,,0,,1
Raw,342496051,13207000000,,,-1177678256793198395,0.0,8.412465256497416,,,0,31,0.0,39,132669919808126,34,28.86001205444336,-521.0703522805736,0.17172497308673884,1,-5852.488027566408,0.0030887939501553774,,,,,0,,1
Raw,342496051,13207000000,,,-1177678256793198395,0.0,8.412465256497416,,,0,32,0.0,17,7852118,12,37.40312576293945,127.72479823634609,0.06430102256015308,1,128.56065504183115,0.0012252068845555186,,,,,0,,1
Raw,342496052,13207000000,,,-1177678256793198395,0.0,8.412465256497416,,,0,97,0.0,99,21933061352,65,29.240245819091797,-230.15542065288628,0.16330871983731288,4,-1180.659977315555,3.4028234663852886E38,,,,,0,,3
Raw,342496052,13207000000,,,-1177678256793198395,0.0,8.412465256497416,,,0,98,0.0,17,1374055,68,28.82178497314453,-380.27204347953943,0.16915083231892059,4,-0.3773247190650295,3.4028234663852886E38,,,,,0,,3
Raw,342496052,13207000000,,,-1177678256793198395,0.0,8.412465256497416,,,0,99,0.0,16,13004937258,1000000000,21.94818115234375,337.7281058880935,2.99792458E8,2,1.3494320331778908,3.4028234663852886E38,,,,,0,,3
Raw,342496054,13207000000,,,-1177678256793198395,0.0,8.412465256497416,,,0,100,0.0,99,21923814930,50,31.449329376220703,769.4261796236624,0.12549982597827802,1,4767.043089021082,0.002391294576227665,,,,,0,,3
Raw,342496054,13207000000,,,-1177678256793198395,0.0,8.412465256497416,,,0,103,0.0,16,13002682013,1000000000,24.983375549316406,-753.7661088303876,2.99792458E8,2,-1.5012781790214391,3.4028234663852886E38,,,,,0,,3
Raw,342496055,13207000000,,,-1177678256793198395,0.0,8.412465256497416,,,0,104,0.0,99,21928689792,33,38.053863525390625,579.2457995667282,0.0635098577432894,1,5892.845029482266,0.0011163410963490605,,,,,0,,3
Raw,342496056,13207000000,,,-1177678256793198395,0.0,8.412465256497416,,,0,105,0.0,16,997535575,1000000000,32.08967590332031,540.2114347708057,2.99792458E8,6,539.1483447349044,3.4028234663852886E38,,,,,0,,3
Raw,342496056,13207000000,,,-1177678256793198395,0.0,8.412465256497416,,,0,106,0.0,99,21925543972,33,35.939109802246094,-170.99742726886382,0.07902898729419489,1,-1066.5801843926783,0.0014230826636776328,,,,,0,,3
Fix,gps,53.071009,-1.389546,178.761308,0.000000,6.000000,1493643053000
Raw,342497009,14207000000,,,-1177678256793198010,0.0,8.490651498818469,,,0,2,0.0,16,14019542734,1000000000,29.04024314880371,-331.7590067000581,2.99792458E8,2,-6.2995456648336585,3.4028234663852886E38,,,,,0,,1
Raw,342497009,14207000000,,,-1177678256793198010,0.0,8.490651498818469,,,0,3,0.0,16,14015076069,1000000000,28.637598037719727,-141.30596699094144,2.99792458E8,2,-2.1173863809787092,3.4028234663852886E38,,,,,0,,1
Raw,342497009,14207000000,,,-1177678256793198010,0.0,8.490651498818469,,,0,6,0.0,39,132670921285759,18,34.103572845458984,-39.42652606128814,0.09218086307868711,1,-497.02569629478677,0.0017913775518536568,,,,,0,,1
Raw,342497010,14207000000,,,-1177678256793198010,0.0,8.490651498818469,,,0,12,0.0,39,132670932497190,12,37.49140167236328,384.76053259131095,0.06450064540517517,1,4685.399385072083,0.0012128178495913744,,,,,0,,1
Raw,342497010,14207000000,,,-1177678256793198010,0.0,8.490651498818469,,,0,14,0.0,39,132670925211250,10,39.100677490234375,-212.0489622540889,0.052661647313895166,1,-2604.13944470183,0.0010077013866975904,,,,,0,,1
Raw,342497010,14207000000,,,-1177678256793198010,0.0,8.490651498818469,,,0,19,0.0,39,132670919768774,12,37.212825775146484,771.4257291829426,0.06783758500004111,1,9409.305774431863,0.0012523464392870665,,,,,0,,1
Raw,342497010,14207000000,,,-1177678256793198010,0.0,8.490651498818469,,,0,22,0.0,39,132670915647193,10,39.24824523925781,118.58272459340657,0.053667491666473804,1,1432.830480006076,9.907258208841085E-4,,,,,0,,1
Raw,342497011,14207000000,,,-1177678256793198010,0.0,8.490651498818469,,,0,24,0.0,39,132670926762841,166,30.59061622619629,654.2820085069998,0.1390000900372218,4,7978.151920392867,3.4028234663852886E38,,,,,1,,1
Raw,342497011,14207000000,,,-1177678256793198010,0.0,8.490651498818469,,,0,25,0.0,39,132670931241043,6,42.86744689941406,-182.8686024941826,0.03554600513435435,1,-2246.8806576602074,6.88449596054852E-4,,,,,0,,1
Raw,342497011,14207000000,,,-1177678256793198010,0.0,8.490651498818469,,,0,29,0.0,39,132670921178449,166,30.593048095703125,-620.1172769341433,0.13795701376283864,1,-7582.927572012786,0.0025300965644419193,,,,,1,,1
Raw,342497012,14207000000,,,-1177678256793198010,0.0,8.490651498818469,,,0,31,0.0,39,132670919809839,38,27.76285171508789,-521.0714429191823,0.194366574687442,1,-6373.672807263406,0.003504668129608035,,,,,0,,1
Raw,342497012,14207000000,,,-1177678256793198010,0.0,8.490651498818469,,,0,32,0.0,51,7851681,10,38.982513427734375,128.00955716059417,0.05384508905680452,1,256.4376660643848,0.001021504052914679,,,,,0,,1
Raw,342497013,14207000000,,,-1177678256793198010,0.0,8.490651498818469,,,0,96,0.0,16,790466454,1000000000,23.11454200744629,925.029225889075,2.99792458E8,6,729.8754140403051,3.4028234663852886E38,,,,,0,,3
Raw,342497013,14207000000,,,-1177678256793198010,0.0,8.490651498818469,,,0,97,0.0,99,22933062198,61,29.710691452026367,-229.9374633434229,0.15482287047793653,1,-1410.7218869256933,0.0027570617385208607,,,,,0,,3
Raw,342497013,14207000000,,,-1177678256793198010,0.0,8.490651498818469,,,0,98,0.0,17,1375392,64,29.33973503112793,-379.9515320583989,0.15937357738035962,4,-380.51959639343625,3.4028234663852886E38,,,,,0,,3
Raw,342497014,14207000000,,,-1177678256793198010,0.0,8.490651498818469,,,0,99,0.0,16,14004936132,1000000000,22.71124267578125,337.5463782299139,2.99792458E8,2,1.3434214179325492,3.4028234663852886E38,,,,,0,,3
Raw,342497014,14207000000,,,-1177678256793198010,0.0,8.490651498818469,,,0,100,0.0,99,22923812266,55,30.708778381347656,769.2338182390477,0.13660763638809875,1,5536.202429012283,0.0024551860988140106,,,,,0,,3
Raw,342497014,14207000000,,,-1177678256793198010,0.0,8.490651498818469,,,0,103,0.0,16,14002684529,1000000000,31.730390548706055,-754.1309274450077,2.99792458E8,2,-1.4901984115279632,3.4028234663852886E38,,,,,0,,3
Raw,342497015,14207000000,,,-1177678256793198010,0.0,8.490651498818469,,,0,104,0.0,99,22928687885,33,38.119789123535156,579.3031944235127,0.0630683210168006,1,6472.04349087511,0.001107900170609355,,,,,0,,3
Raw,342497015,14207000000,,,-1177678256793198010,0.0,8.490651498818469,,,0,105,0.0,17,7533789,33,35.179466247558594,540.1515518946951,0.08259235971331058,4,4.313808632953624,3.4028234663852886E38,,,,,0,,3
Raw,342497015,14207000000,,,-1177678256793198010,0.0,8.490651498818469,,,0,106,0.0,99,22925544567,33,36.846778869628906,-170.7490684081821,0.07164339551809445,1,-1237.463244401492,0.0012818779796361923,,,,,0,,3
Nav,100,769,1,-1,12,101,76,8,18,90,16,-127,24,41,127,88
Nav,104,769,1,-1,12,101,76,8,18,90,16,-127,24,41,127,88
Fix,gps,53.071012,-1.389555,177.660495,0.000000,6.000000,1493643054000
Nav,106,769,1,-1,12,101,76,8,18,90,16,-127,24,41,127,88
Raw,342498135,15207000000,,,-1177678256793197628,0.0,8.490420072694604,,,0,2,0.0,16,15019543791,1000000000,26.22287940979004,-331.38914388187254,2.99792458E8,2,-6.289930889200185,3.4028234663852886E38,,,,,0,,1
Raw,342498135,15207000000,,,-1177678256793197628,0.0,8.490420072694604,,,0,3,0.0,17,81076568,39,26.040334701538086,-141.09566119296744,5.723393433578671,6,-10.15890847630523,3.4028234663852886E38,,,,,0,,1
Raw,342498136,15207000000,,,-1177678256793197628,0.0,8.490420072694604,,,0,6,0.0,39,132671921285860,17,34.8092041015625,-39.21966685173001,0.08500638948786421,1,-536.3416936762694,0.0016516026807948947,,,,,0,,1
Raw,342498136,15207000000,,,-1177678256793197628,0.0,8.490420072694604,,,0,12,0.0,39,132671932495896,13,37.13557434082031,384.8889212050324,0.0671036222943508,1,5070.209868936236,0.0012635341845452785,,,,,0,,1
Raw,342498136,15207000000,,,-1177678256793197628,0.0,8.490420072694604,,,0,14,0.0,39,132671925211975,11,38.019256591796875,-211.93144594399826,0.05951967661234442,1,-2816.1310561124974,0.0011413081083446741,,,,,0,,1
Raw,342498137,15207000000,,,-1177678256793197628,0.0,8.490420072694604,,,0,19,0.0,39,132671919766229,15,35.531612396240234,771.5493121702943,0.08156500996305538,1,10180.810768929132,0.0015197955071926117,,,,,0,,1
Raw,342498137,15207000000,,,-1177678256793197628,0.0,8.490420072694604,,,0,22,0.0,39,132671915646802,12,37.7611083984375,118.80713200776688,0.06316388669384271,1,1551.4852467706569,0.0011757372412830591,,,,,0,,1
Raw,342498137,15207000000,,,-1177678256793197628,0.0,8.490420072694604,,,0,24,0.0,39,132671926760629,34,28.68901252746582,654.4424687123092,0.17272145225259472,1,8632.492938708945,0.0031502051278948784,,,,,0,,1
Raw,342498138,15207000000,,,-1177678256793197628,0.0,8.490420072694604,,,0,25,0.0,39,132671931241670,7,41.885467529296875,-182.69890594315552,0.03955869849335658,1,-2429.66072517013,7.708522025495768E-4,,,,,0,,1
Raw,342498138,15207000000,,,-1177678256793197628,0.0,8.490420072694604,,,0,29,0.0,39,132671921180575,24,31.533119201660156,-619.96881375353,0.12382770538060106,1,-8203.02853813013,0.0022705625742673874,,,,,0,,1
Raw,342498138,15207000000,,,-1177678256793197628,0.0,8.490420072694604,,,0,31,0.0,39,132671919811600,37,27.925264358520508,-520.9535857845265,0.19083228385659468,1,-6894.736176367124,0.003439744934439659,,,,,0,,1
Raw,342498139,15207000000,,,-1177678256793197628,0.0,8.490420072694604,,,0,32,0.0,51,7851308,12,37.718894958496094,128.30366319854363,0.06205567847892432,1,384.527081837817,0.0011814653407782316,,,,,0,,1
Raw,342498139,15207000000,,,-1177678256793197628,0.0,8.490420072694604,,,0,97,0.0,99,23933063023,71,28.406963348388672,-229.816215004343,0.17951562687053713,1,-1640.579236771614,0.0032035603653639555,,,,,0,,3
Raw,342498139,15207000000,,,-1177678256793197628,0.0,8.490420072694604,,,0,98,0.0,17,1376649,62,29.665462493896484,-379.4751615635796,0.15351695322781056,4,-760.7551037532027,3.4028234663852886E38,,,,,0,,3
Raw,342498140,15207000000,,,-1177678256793197628,0.0,8.490420072694604,,,0,99,0.0,16,15004934907,1000000000,15.596884727478027,337.90986762872967,2.99792458E8,2,1.3607386348388593,3.4028234663852886E38,,,,,0,,3
Raw,342498140,15207000000,,,-1177678256793197628,0.0,8.490420072694604,,,0,100,0.0,99,23923809866,72,28.268587112426758,769.3464948403121,0.18069631439149603,1,6305.511226123488,0.003251576330512762,,,,,0,,3
Raw,342498140,15207000000,,,-1177678256793197628,0.0,8.490420072694604,,,0,103,0.0,16,15002687043,1000000000,25.152118682861328,-753.6753813311238,2.99792458E8,2,-1.5246958590224553,3.4028234663852886E38,,,,,0,,3
Raw,342498141,15207000000,,,-1177678256793197628,0.0,8.490420072694604,,,0,104,0.0,99,23928685932,33,37.60331726074219,579.5059168749103,0.06661564655666721,1,7051.466990138197,0.001175774959847331,,,,,0,,3
Raw,342498141,15207000000,,,-1177678256793197628,0.0,8.490420072694604,,,0,105,0.0,17,7531951,33,35.032203674316406,540.4180767047035,0.08398107836110708,4,544.2875637690922,3.4028234663852886E38,,,,,0,,3
Raw,342498141,15207000000,,,-1177678256793197628,0.0,8.490420072694604,,,0,106,0.0,99,23925545078,33,35.88504409790039,-170.57485593166575,0.07949395986999924,1,-1408.1207173321222,0.001431968412362039,,,,,0,,3
Nav,6,257,1,-1,2,34,-61,-101,56,10,-52,10,-96,28,125,-33,-93,11,20,-37,76,7,91,-67,45,62,48,-128,4,26,-127,67,-31,5,-89,40,72,3,86,-15,61,8,89,-97,-64
Nav,12,257,1,-1,2,34,-61,-101,56,10,-52,10,-96,5,-126,37,-88,10,-4,-51,-9,4,21,122,-38,1,-45,0,-33,26,-26,89,27,2,123,-88,71,3,21,-73,-15,8,89,-97,-109
Nav,14,257,1,-1,2,34,-61,-101,56,10,-52,10,-96,17,-128,40,-125,13,12,108,87,26,87,57,-106,0,44,-63,61,39,39,71,-14,3,-29,40,78,3,71,108,-65,8,89,-97,76
Nav,19,257,1,-1,2,34,-61,-101,56,10,-52,10,-96,13,61,53,99,11,88,-113,11,27,94,127,63,61,-126,1,113,16,114,95,-21,3,41,40,124,3,84,-91,16,8,89,-97,31
Nav,22,257,1,-1,2,34,-61,-101,56,10,-52,10,-96,12,64,116,28,15,23,-22,-70,47,67,-31,-8,0,102,64,-9,57,45,-110,74,3,-53,104,118,3,12,-114,-95,8,89,-97,-64
Nav,25,257,1,-1,2,-53,-83,-64,-34,10,-52,10,-96,22,-62,68,-7,11,-82,-120,37,4,-7,36,-90,2,9,-128,-32,20,107,62,-126,2,-95,-24,88,3,52,81,96,8,89,-97,76
Nav,29,257,1,-1,2,34,-61,-101,56,10,-52,10,-96,5,-3,-115,-8,11,82,-126,-49,49,-116,-90,-49,61,-40,64,5,23,-119,-87,39,2,102,104,66,3,71,27,-108,8,89,-97,76
Nav,31,257,1,-1,2,34,-61,-101,56,10,-52,10,-96,7,-127,-13,-99,11,-32,17,112,19,-111,-49,-73,1,-32,1,44,20,26,-85,105,5,33,-88,72,3,100,102,56,8,89,-97,31
Fix,gps,53.071015,-1.389563,176.916231,0.000000,6.000000,1493643055000
Raw,342499015,16207000000,,,-1177678256793197245,0.0,8.385102894924703,,,0,2,0.0,16,16019544944,1000000000,30.293012619018555,-331.0156683232956,2.99792458E8,2,-6.280253576455723,3.4028234663852886E38,,,,,0,,1
Raw,342499015,16207000000,,,-1177678256793197245,0.0,8.385102894924703,,,0,3,0.0,16,16020077036,1000000000,30.212644577026367,-141.09566119296744,2.99792458E8,2,-2.818196110834455,3.4028234663852886E38,,,,,0,,1
Raw,342499017,16207000000,,,-1177678256793197245,0.0,8.385102894924703,,,0,6,0.0,39,132672921285996,16,34.95104217529297,-39.07962629818485,0.08363329751324883,1,-575.5284080344442,0.0016248509055003524,,,,,0,,1
Raw,342499017,16207000000,,,-1177678256793197245,0.0,8.385102894924703,,,0,12,0.0,39,132672932494644,14,36.015384674072266,385.042224094472,0.07603096261519865,1,5455.149736777736,0.0014374625170603395,,,,,0,,1
Raw,342499018,16207000000,,,-1177678256793197245,0.0,8.385102894924703,,,0,14,0.0,39,132672925212688,13,36.67515182495117,-211.78124455810223,0.06932418669893772,1,-3027.957289502567,0.0013323186431080103,,,,,0,,1
Raw,342499018,16207000000,,,-1177678256793197245,0.0,8.385102894924703,,,0,19,0.0,39,132672919763670,14,36.345741271972656,771.6815521016028,0.07458492120300136,1,10952.41300385142,0.001383816939778626,,,,,0,,1
Raw,342499019,16207000000,,,-1177678256793197245,0.0,8.385102894924703,,,0,22,0.0,39,132672915646416,11,37.98653793334961,118.86992893391016,0.061617682300592364,1,1670.2653080060943,0.0011456153588369489,,,,,0,,1
Raw,342499019,16207000000,,,-1177678256793197245,0.0,8.385102894924703,,,0,24,0.0,39,132672926758459,21,32.89584732055664,654.4743017267015,0.10688187637799323,1,9286.921522098533,0.0020586068276315928,,,,,0,,1
Raw,342499020,16207000000,,,-1177678256793197245,0.0,8.385102894924703,,,0,25,0.0,39,132672931242298,9,40.320152282714844,-182.59446025514137,0.046971283308753886,1,-2612.31981664407,9.230746072717011E-4,,,,,0,,1
Raw,342499020,16207000000,,,-1177678256793197245,0.0,8.385102894924703,,,0,29,0.0,39,132672921182635,34,28.844404220581055,-620.1116192463605,0.1686771560689163,1,-8823.110604504187,0.0030943488236516714,,,,,0,,1
Raw,342499020,16207000000,,,-1177678256793197245,0.0,8.385102894924703,,,0,31,0.0,39,132672919813377,44,26.49167251586914,-520.9205598841559,0.22443801867552204,1,-7415.70525419626,0.004057007376104593,,,,,0,,1
Raw,342499021,16207000000,,,-1177678256793197245,0.0,8.385102894924703,,,0,32,0.0,39,132672927850866,16,35.10665512084961,128.43458243466188,0.08333323709706986,1,512.7827380510561,0.001596000511199236,,,,,0,,1
Raw,342499021,16207000000,,,-1177678256793197245,0.0,8.385102894924703,,,0,97,0.0,99,24933063605,97,25.723468780517578,-229.5034743832897,0.24364849211529238,4,-1870.1543204365237,3.4028234663852886E38,,,,,0,,3
Raw,342499021,16207000000,,,-1177678256793197245,0.0,8.385102894924703,,,0,98,0.0,17,1377845,79,27.509685516357422,-379.5245811255377,0.19669423339297543,4,-1140.5532543245138,3.4028234663852886E38,,,,,0,,3
Raw,342499022,16207000000,,,-1177678256793197245,0.0,8.385102894924703,,,0,99,0.0,16,16004933876,1000000000,26.391550064086914,338.27512931528463,2.99792458E8,2,1.3569136380138214,3.4028234663852886E38,,,,,0,,3
Raw,342499022,16207000000,,,-1177678256793197245,0.0,8.385102894924703,,,0,100,0.0,99,24923807300,73,28.219018936157227,769.4193631323578,0.1817260605644755,1,7074.864498487566,0.0032701855525374413,,,,,0,,3
Raw,342499022,16207000000,,,-1177678256793197245,0.0,8.385102894924703,,,0,103,0.0,16,16002689556,1000000000,25.629858016967773,-753.4031306684196,2.99792458E8,2,-1.5123500770458929,3.4028234663852886E38,,,,,0,,3
Raw,342499023,16207000000,,,-1177678256793197245,0.0,8.385102894924703,,,0,104,0.0,99,24928684008,33,37.41498947143555,579.7132063754821,0.06796234043721067,1,7631.073632080101,0.0012015464017167687,,,,,0,,3
Raw,342499023,16207000000,,,-1177678256793197245,0.0,8.385102894924703,,,0,105,0.0,17,7529959,49,31.616634368896484,542.2714466079574,0.12378694123155193,4,1086.033464054324,3.4028234663852886E38,,,,,0,,3
Raw,342499023,16207000000,,,-1177678256793197245,0.0,8.385102894924703,,,0,106,0.0,99,24925545675,34,34.887939453125,-170.36833328636578,0.08860512578398722,1,-1578.5788099695949,0.0016061594942584634,,,,,0,,3
Nav,100,769,1,-1,13,111,-82,107,-126,49,-12,-66,-88,5,-25,-128
Nav,104,769,1,-1,13,111,-82,107,-126,49,-12,-66,-88,5,-25,-128
Nav,106,769,1,-1,13,111,-82,107,-126,49,-12,-66,-88,5,-25,-128
Fix,gps,53.071015,-1.389573,176.796429,0.000000,6.000000,1493643056000
Raw,342500101,17207000000,,,-1177678256793196862,0.0,8.364120259694381,,,0,2,0.0,17,19545771,38,27.84878921508789,-330.5493521531505,0.19244058305741374,4,-271.2444503676688,3.4028234663852886E38,,,,,0,,1
Raw,342500101,17207000000,,,-1177678256793196862,0.0,8.364120259694381,,,0,3,0.0,16,17020077507,1000000000,28.875234603881836,-141.09566119296744,2.99792458E8,2,-2.8215062728804896,3.4028234663852886E38,,,,,0,,1
Raw,342500102,17207000000,,,-1177678256793196862,0.0,8.364120259694381,,,0,6,0.0,47,132673921286069,16,35.31320571899414,-38.9250751387751,0.08022728186544731,1,-614.5993306373781,0.0015584949869662523,,,,,0,,1
Raw,342500102,17207000000,,,-1177678256793196862,0.0,8.364120259694381,,,0,12,0.0,47,132673932493380,12,37.81673049926758,385.18772210136785,0.062211420993264516,1,5840.196191327183,0.001168232411146164,,,,,0,,1
Raw,342500102,17207000000,,,-1177678256793196862,0.0,8.364120259694381,,,0,14,0.0,47,132673925213392,13,36.930519104003906,-211.71108582135003,0.06734300661849746,1,-3239.702193853418,0.0012937185820192099,,,,,0,,1
Raw,342500115,17207000000,,,-1177678256793196862,0.0,8.364120259694381,,,0,19,0.0,47,132673919761052,12,37.318359375,771.7783462781276,0.0670599000610014,1,11724.077148517477,0.0012372225755825639,,,,,0,,1
Raw,342500116,17207000000,,,-1177678256793196862,0.0,8.364120259694381,,,0,22,0.0,47,132673915646007,10,39.22364807128906,118.99613627041413,0.0538114767318231,1,1789.175370361856,9.935353882610798E-4,,,,,0,,1
Raw,342500116,17207000000,,,-1177678256793196862,0.0,8.364120259694381,,,0,24,0.0,47,132673926756305,27,30.729244232177734,654.6814548974471,0.13681731505555927,1,9941.432665179855,0.002490733517333865,,,,,0,,1
Raw,342500116,17207000000,,,-1177678256793196862,0.0,8.364120259694381,,,0,25,0.0,39,132673931242919,8,40.752296447753906,-182.52355170434566,0.04478978558711974,1,-2794.9061078546033,8.332031429745257E-4,,,,,0,,1
Raw,342500117,17207000000,,,-1177678256793196862,0.0,8.364120259694381,,,0,29,0.0,39,132673921184735,20,33.213443756103516,-619.8813581700924,0.10208544461629887,1,-9443.08203227515,0.0019846938084810972,,,,,0,,1
Raw,342500117,17207000000,,,-1177678256793196862,0.0,8.364120259694381,,,0,31,0.0,47,132673919815109,49,25.56674575805664,-520.8510657553059,0.24925628770830577,1,-7936.765346565214,0.004512863699346781,,,,,0,,1
Raw,342500117,17207000000,,,-1177678256793196862,0.0,8.364120259694381,,,0,32,0.0,39,132673927850459,14,35.96858596801758,128.5105181477947,0.07559418961096553,1,641.133623678491,0.0014452283503487706,,,,,0,,1
Raw,342500118,17207000000,,,-1177678256793196862,0.0,8.364120259694381,,,0,97,0.0,16,17003064496,1000000000,24.69613265991211,-229.60159777561887,2.99792458E8,2,-0.6873490775476512,3.4028234663852886E38,,,,,0,,3
Raw,342500119,17207000000,,,-1177678256793196862,0.0,8.364120259694381,,,0,98,0.0,49,1379140,80,27.34796142578125,-379.7789384985674,0.20038640521260787,1,-1520.430245620497,0.003617681795731187,,,,,0,,3
Raw,342500119,17207000000,,,-1177678256793196862,0.0,8.364120259694381,,,0,99,0.0,16,17004932651,1000000000,23.4237060546875,338.0933675746485,2.99792458E8,2,1.350891491717394,3.4028234663852886E38,,,,,0,,3
Raw,342500120,17207000000,,,-1177678256793196862,0.0,8.364120259694381,,,0,100,0.0,99,25923804684,79,27.460878372192383,769.4654426135767,0.19823776261294157,1,7844.256427378144,0.003568448591977358,,,,,0,,3
Raw,342500125,17207000000,,,-1177678256793196862,0.0,8.364120259694381,,,0,103,0.0,16,17002691972,1000000000,21.32925796508789,-753.5846538318601,2.99792458E8,2,-1.5009167695369499,3.4028234663852886E38,,,,,0,,3
Raw,342500126,17207000000,,,-1177678256793196862,0.0,8.364120259694381,,,0,104,0.0,99,25928682052,33,37.37512969970703,579.876052352748,0.0682508597481169,1,8210.821265625405,0.0012070729862898588,,,,,0,,3
Raw,342500127,17207000000,,,-1177678256793196862,0.0,8.364120259694381,,,0,105,0.0,49,7528330,43,32.716468811035156,541.1693222113793,0.10922519504035672,4,1629.052125482352,3.4028234663852886E38,,,,,0,,3
Raw,342500127,17207000000,,,-1177678256793196862,0.0,8.364120259694381,,,0,106,0.0,99,25925546248,33,36.371700286865234,-170.2098157810782,0.07541310159795139,1,-1748.9068436023117,0.0013539434876292944,,,,,0,,3
Fix,gps,53.071016,-1.389584,177.227876,0.000000,6.000000,1493643057000
Raw,342501049,18207000000,,,-1177678256793196479,0.0,8.325217607800747,,,0,2,0.0,17,19546988,31,29.45284080505371,-330.89545949913963,0.1605835045869194,4,-6.280196190047377,3.4028234663852886E38,,,,,0,,1
Raw,342501049,18207000000,,,-1177678256793196479,0.0,8.325217607800747,,,0,3,0.0,16,18020077977,1000000000,29.832063674926758,-141.09566119296744,2.99792458E8,2,-2.820402885543647,3.4028234663852886E38,,,,,0,,1
Raw,342501049,18207000000,,,-1177678256793196479,0.0,8.325217607800747,,,0,6,0.0,47,132674921286218,15,35.79458999633789,-38.737425653774636,0.07591445320205598,1,-653.4533834019659,0.001474470947869122,,,,,0,,1
Raw,342501049,18207000000,,,-1177678256793196479,0.0,8.325217607800747,,,0,12,0.0,47,132674932492125,16,34.93135452270508,385.23196112993446,0.08583823108419852,1,6225.360152690872,0.0015354008646681905,,,,,0,,1
Raw,342501050,18207000000,,,-1177678256793196479,0.0,8.325217607800747,,,0,14,0.0,47,132674925214116,12,37.577091217041016,-211.4776550766253,0.06257947574378825,1,-3451.243621830193,0.0012009120546281338,,,,,0,,1
Raw,342501051,18207000000,,,-1177678256793196479,0.0,8.325217607800747,,,0,19,0.0,47,132674919758513,15,35.50910949707031,771.9740477434816,0.08176600159814046,1,12495.896373990941,0.001523737795650959,,,,,0,,1
Raw,342501051,18207000000,,,-1177678256793196479,0.0,8.325217607800747,,,0,22,0.0,47,132674915645617,12,37.8841438293457,119.18293369400152,0.062314841611458366,1,1908.2637170481876,0.0011592003284022212,,,,,0,,1
Raw,342501051,18207000000,,,-1177678256793196479,0.0,8.325217607800747,,,0,24,0.0,47,132674926754121,28,30.428956985473633,654.845596008061,0.14158691187528927,4,10595.1628304045,3.4028234663852886E38,,,,,0,,1
Raw,342501052,18207000000,,,-1177678256793196479,0.0,8.325217607800747,,,0,25,0.0,39,132674931243531,7,41.629310607910156,-182.26604170408757,0.040682525060543845,1,-2977.300562370202,7.939242059364915E-4,,,,,0,,1
Raw,342501052,18207000000,,,-1177678256793196479,0.0,8.325217607800747,,,0,29,0.0,39,132674921186753,19,33.660377502441406,-619.8247131273515,0.0969765126746312,1,-10062.970164159831,0.001885153935290873,,,,,0,,1
Raw,342501053,18207000000,,,-1177678256793196479,0.0,8.325217607800747,,,0,31,0.0,47,132674919816773,34,28.694700241088867,-520.7565891858246,0.17495764749081888,1,-8457.64817521534,0.0031481424812227488,,,,,0,,1
Raw,342501053,18207000000,,,-1177678256793196479,0.0,8.325217607800747,,,0,32,0.0,39,132674927850019,9,39.639610290527344,128.76243862518305,0.05002452556135495,1,769.7272297813702,9.470767108723521E-4,,,,,0,,1
Raw,342501053,18207000000,,,-1177678256793196479,0.0,8.325217607800747,,,0,97,0.0,16,18003065359,1000000000,25.339008331298828,-229.50887645264856,2.99792458E8,2,-0.68347838870618,3.4028234663852886E38,,,,,0,,3
Raw,342501053,18207000000,,,-1177678256793196479,0.0,8.325217607800747,,,0,98,0.0,49,1380419,74,28.053232192993164,-379.67825892199903,0.18477820445666127,1,-1900.160000840209,0.0033355453051626682,,,,,0,,3
Raw,342501054,18207000000,,,-1177678256793196479,0.0,8.325217607800747,,,0,99,0.0,16,18004931620,1000000000,28.74462890625,338.1842654861948,2.99792458E8,2,1.34596027079442,3.4028234663852886E38,,,,,0,,3
Raw,342501054,18207000000,,,-1177678256793196479,0.0,8.325217607800747,,,0,100,0.0,99,26923802117,101,25.372955322265625,769.344858882399,0.251919179326044,4,8613.765855222659,3.4028234663852886E38,,,,,0,,3
Raw,342501054,18207000000,,,-1177678256793196479,0.0,8.325217607800747,,,0,103,0.0,16,18002694583,1000000000,32.975955963134766,-753.5846538318601,2.99792458E8,2,-1.489118966718566,3.4028234663852886E38,,,,,0,,3
Raw,342501055,18207000000,,,-1177678256793196479,0.0,8.325217607800747,,,0,104,0.0,99,26928680167,33,37.20501708984375,580.0873635831895,0.06949834339205843,1,8790.78964704252,0.0012309466255828738,,,,,0,,3
Raw,342501055,18207000000,,,-1177678256793196479,0.0,8.325217607800747,,,0,105,0.0,49,7526581,37,34.09022521972656,541.4987632361288,0.09344484293113853,1,2170.423622669718,0.0016605431446805596,,,,,0,,3
Raw,342501055,18207000000,,,-1177678256793196479,0.0,8.325217607800747,,,0,106,0.0,99,26925546797,33,36.88022232055664,-169.94790914392865,0.07138614619537492,1,-1918.9702953746846,0.0012769518652930856,,,,,0,,3
Nav,98,769,1,-1,14,117,84,7,15,56,96,-30,92,60,53,-72
Nav,104,769,1,-1,14,117,84,9,15,56,96,-30,92,60,48,88
Nav,106,769,1,-1,14,117,84,7,15,56,96,-30,92,60,53,-72
Fix,gps,53.071006,-1.389591,177.323451,0.000000,6.000000,1493643058000
Raw,342501975,19207000000,,,-1177678256793196097,0.0,8.218713078818032,,,0,2,0.0,17,19548058,29,30.18647003173828,-330.90203741324854,0.14786226097342936,1,-337.15268410469787,0.0026513433549553156,,,,,0,,1
Raw,342501976,19207000000,,,-1177678256793196097,0.0,8.218713078818032,,,0,3,0.0,16,19020078448,1000000000,27.419536590576172,-141.09566119296744,2.99792458E8,2,-2.8192994981777004,3.4028234663852886E38,,,,,0,,1
Raw,342501976,19207000000,,,-1177678256793196097,0.0,8.218713078818032,,,0,6,0.0,47,132675921286354,14,36.104713439941406,-38.56438476170126,0.07325991578020369,1,-692.1216129822893,0.00142275495454669,,,,,0,,1
Raw,342501976,19207000000,,,-1177678256793196097,0.0,8.218713078818032,,,0,12,0.0,47,132675932490858,18,33.92384719848633,385.34923886282945,0.09611880968306424,1,6610.7336288338665,0.0018288299906998873,,,,,0,,1
Raw,342501977,19207000000,,,-1177678256793196097,0.0,8.218713078818032,,,0,14,0.0,47,132675925214809,9,39.59492874145508,-211.248620968792,0.0498012172396502,1,-3662.6059404898865,9.519612649455667E-4,,,,,0,,1
Raw,342501977,19207000000,,,-1177678256793196097,0.0,8.218713078818032,,,0,19,0.0,47,132675919755923,15,35.82307052612305,771.9899301682212,0.07898896370633485,1,13267.835721585674,0.0014696441357955337,,,,,0,,1
Raw,342501977,19207000000,,,-1177678256793196097,0.0,8.218713078818032,,,0,22,0.0,47,132675915645221,11,38.127872467041016,119.30885985023917,0.06066837438620812,1,2027.5254934628665,0.001127124996855855,,,,,0,,1
Raw,342501978,19207000000,,,-1177678256793196097,0.0,8.218713078818032,,,0,24,0.0,47,132675926751979,32,29.241744995117188,654.6804324237514,0.16214603877043487,1,11249.880659228134,0.00295598478987813,,,,,0,,1
Raw,342501985,19207000000,,,-1177678256793196097,0.0,8.218713078818032,,,0,25,0.0,39,132675931244157,9,39.945220947265625,-182.19365056643312,0.04895435223627195,1,-3159.5501952576706,9.637922630645335E-4,,,,,0,,1
Raw,342501986,19207000000,,,-1177678256793196097,0.0,8.218713078818032,,,0,29,0.0,39,132675921188876,18,34.22660827636719,-619.6334423813455,0.09087012802037592,1,-10682.754018186715,0.001766181318089366,,,,,0,,1
Raw,342501986,19207000000,,,-1177678256793196097,0.0,8.218713078818032,,,0,31,0.0,47,132675919818532,41,27.046295166015625,-520.7419678119763,0.21077622906823335,1,-8978.456119630404,0.003806052263826132,,,,,0,,1
Raw,342501986,19207000000,,,-1177678256793196097,0.0,8.218713078818032,,,0,32,0.0,39,132675927849601,9,39.75706100463867,128.8226452846306,0.04937152533173078,1,898.5180967657672,9.34356648940593E-4,,,,,0,,1
Raw,342501987,19207000000,,,-1177678256793196097,0.0,8.218713078818032,,,0,97,0.0,16,19003066123,1000000000,22.338346481323242,-229.05241011243857,2.99792458E8,2,-0.6928768715792527,3.4028234663852886E38,,,,,0,,3
Raw,342501987,19207000000,,,-1177678256793196097,0.0,8.218713078818032,,,0,98,0.0,97,27931381732,66,29.053483963012695,-379.4658911354054,0.16650498192944374,1,-2279.755230366851,0.0029727215878665447,,,,,0,,3
Raw,342501988,19207000000,,,-1177678256793196097,0.0,8.218713078818032,,,0,99,0.0,16,19004930491,1000000000,26.902587890625,338.5495271727498,2.99792458E8,2,1.3633145759198135,3.4028234663852886E38,,,,,0,,3
Raw,342501988,19207000000,,,-1177678256793196097,0.0,8.218713078818032,,,0,100,0.0,16,19003799664,1000000000,29.42194366455078,769.5167707931,2.99792458E8,2,2.327765800193447,3.4028234663852886E38,,,,,0,,3
Raw,342501989,19207000000,,,-1177678256793196097,0.0,8.218713078818032,,,0,103,0.0,17,2697014,70,28.50431251525879,-753.6063984391217,0.1756765243826235,4,-604.1675105595625,3.4028234663852886E38,,,,,0,,3
Raw,342501989,19207000000,,,-1177678256793196097,0.0,8.218713078818032,,,0,104,0.0,99,27928678194,33,37.64215850830078,580.3525250949369,0.06634007458520177,1,9370.978774104922,0.0011705287033692002,,,,,0,,3
Raw,342501989,19207000000,,,-1177678256793196097,0.0,8.218713078818032,,,0,105,0.0,49,7524764,40,33.461978912353516,541.5898656424142,0.10035222356006551,1,2711.9951078972254,0.001785100088454783,,,,,0,,3
Raw,342501990,19207000000,,,-1177678256793196097,0.0,8.218713078818032,,,0,106,0.0,99,27925547367,33,37.954105377197266,-169.74706122763973,0.06361858294303435,1,-2088.8109310710256,0.0011284446809440851,,,,,0,,3
Fix,gps,53.071002,-1.389599,177.639804,0.000000,4.000000,1493643059000
Raw,342503088,20207000000,,,-1177678256793195713,0.0,8.249783825323998,,,0,2,0.0,17,19549145,30,29.728702545166016,-330.7821694136578,0.15567385017241597,1,-667.8953410055688,0.002794822910800576,,,,,0,,1
Raw,342503111,20207000000,,,-1177678256793195713,0.0,8.249783825323998,,,0,6,0.0,47,132676921286458,14,36.269775390625,-38.51606009865898,0.07188525947408775,1,-730.6233249851267,0.0013959729112684727,,,,,0,,1
Raw,342503111,20207000000,,,-1177678256793195713,0.0,8.249783825323998,,,0,12,0.0,47,132676932489533,15,35.409854888916016,385.44351093757155,0.0813573199936195,1,6996.1844183032,0.0015412494540214539,,,,,0,,1
Raw,342503112,20207000000,,,-1177678256793195713,0.0,8.249783825323998,,,0,14,0.0,47,132676925215510,9,39.70171356201172,-211.15271293613682,0.04920428331667903,1,-3873.8217614636815,9.403293952345848E-4,,,,,0,,1
Raw,342503112,20207000000,,,-1177678256793195713,0.0,8.249783825323998,,,0,19,0.0,47,132676919753341,11,38.01421356201172,772.0743864954848,0.06216935046099417,1,14039.88584093227,0.0011419708607718349,,,,,0,,1
Raw,342503113,20207000000,,,-1177678256793195713,0.0,8.249783825323998,,,0,22,0.0,47,132676915644828,10,38.84590530395508,119.59331203237855,0.05607803913925624,1,2146.953175343721,0.001037696609273553,,,,,0,,1
Raw,342503113,20207000000,,,-1177678256793195713,0.0,8.249783825323998,,,0,24,0.0,47,132676926749778,42,26.991947174072266,654.7674108527976,0.20972611330209767,4,11904.793664665547,3.4028234663852886E38,,,,,0,,1
Raw,342503113,20207000000,,,-1177678256793195713,0.0,8.249783825323998,,,0,25,0.0,39,132676931244737,9,40.25243377685547,-181.98774140535056,0.04732353664693953,1,-3341.64592353332,8.825596887618303E-4,,,,,0,,1
Raw,342503114,20207000000,,,-1177678256793195713,0.0,8.249783825323998,,,0,29,0.0,39,132676921190936,18,34.21617889404297,-619.7570253686972,0.09097941488169686,1,-11302.512621065891,0.0017683032201603055,,,,,0,,1
Raw,342503114,20207000000,,,-1177678256793195713,0.0,8.249783825323998,,,0,31,0.0,47,132676919820221,35,28.52022933959961,-520.6315065703859,0.17843578880589084,1,-9499.19851856016,0.003212018171325326,,,,,0,,1
Raw,342503114,20207000000,,,-1177678256793195713,0.0,8.249783825323998,,,0,32,0.0,39,132676927849191,9,39.5758171081543,129.09057599597054,0.05038272003087782,1,1027.4887775064565,9.540581959299743E-4,,,,,0,,1
Raw,342503115,20207000000,,,-1177678256793195713,0.0,8.249783825323998,,,0,97,0.0,16,20003066887,1000000000,15.672834396362305,-228.87054612443285,2.99792458E8,2,-0.6887436672539576,3.4028234663852886E38,,,,,0,,3
Raw,342503117,20207000000,,,-1177678256793195713,0.0,8.249783825323998,,,0,98,0.0,99,28931382961,59,30.014400482177734,-379.44806601064397,0.1492816088991703,1,-2659.246069224815,0.0026613890659064054,,,,,0,,3
Raw,342503118,20207000000,,,-1177678256793195713,0.0,8.249783825323998,,,0,99,0.0,16,20004929361,1000000000,27.63904571533203,338.7312548309294,2.99792458E8,2,1.3587432424420223,3.4028234663852886E38,,,,,0,,3
Raw,342503118,20207000000,,,-1177678256793195713,0.0,8.249783825323998,,,0,100,0.0,16,20003797097,1000000000,30.776281356811523,769.6076346221898,2.99792458E8,2,2.315992062281385,3.4028234663852886E38,,,,,0,,3
Raw,342503122,20207000000,,,-1177678256793195713,0.0,8.249783825323998,,,0,103,0.0,17,2699514,83,27.07330894470215,-753.352893127505,0.2070535028588666,4,-1357.3709210552959,3.4028234663852886E38,,,,,0,,3
Raw,342503122,20207000000,,,-1177678256793195713,0.0,8.249783825323998,,,0,104,0.0,99,28928676229,33,39.659881591796875,580.4448885521138,0.05365732767217629,1,9951.343645224502,9.278888464905322E-4,,,,,0,,3
Raw,342503123,20207000000,,,-1177678256793195713,0.0,8.249783825323998,,,0,105,0.0,51,7522897,36,34.25888442993164,541.818149936204,0.09167322086493135,1,3253.745894356218,0.0017274024430662394,,,,,0,,3
Raw,342503135,20207000000,,,-1177678256793195713,0.0,8.249783825323998,,,0,106,0.0,99,28925547943,33,38.49650955200195,-169.50129263365375,0.06004561651210938,1,-2258.4349630075462,0.0010601325193420053,,,,,0,,3
Nav,98,769,1,-1,15,123,81,-44,47,90,-12,-64,14,7,-111,-96
Nav,104,769,1,-1,15,123,81,-44,47,90,-12,-64,14,7,-111,-96
Nav,105,769,1,-1,15,123,81,-44,47,90,-12,-64,14,7,-111,-96
Nav,106,769,1,-1,15,123,81,-44,47,90,-12,-64,14,7,-111,-96
Fix,gps,53.071002,-1.389596,179.400016,0.000000,4.000000,1493643060000
Raw,342504040,21207000000,,,-1177678256793195326,0.0,8.267349147653144,,,0,2,0.0,51,19550266,29,30.018341064453125,-330.6104960801524,0.15068391559664984,1,-998.5193351823164,0.00270316400565207,,,,,0,,1
Raw,342504041,21207000000,,,-1177678256793195326,0.0,8.267349147653144,,,0,6,0.0,47,132677921286616,12,37.24366760253906,-38.30661914301925,0.06428523362918334,1,-768.9537642087312,0.0012479074066504836,,,,,0,,1
Raw,342504041,21207000000,,,-1177678256793195326,0.0,8.267349147653144,,,0,12,0.0,47,132677932488305,20,33.36473083496094,385.5512115001836,0.10235966859998191,4,7381.866861910064,3.4028234663852886E38,,,,,0,,1
Raw,342504043,21207000000,,,-1177678256793195326,0.0,8.267349147653144,,,0,14,0.0,47,132677925216208,10,39.47660827636719,-210.9182597177164,0.05047164145949867,1,-4084.857948186025,9.650175925344229E-4,,,,,0,,1
Raw,342504044,21207000000,,,-1177678256793195326,0.0,8.267349147653144,,,0,19,0.0,47,132677919750760,16,35.23124313354492,772.2589770800123,0.08430708338164106,1,14812.070282144214,0.0015732712345197797,,,,,0,,1
Raw,342504044,21207000000,,,-1177678256793195326,0.0,8.267349147653144,,,0,22,0.0,47,132677915644415,10,39.31851577758789,119.67676292717465,0.053257237409540054,1,2266.537041066899,9.827428730204701E-4,,,,,0,,1
Raw,342504044,21207000000,,,-1177678256793195326,0.0,8.267349147653144,,,0,24,0.0,47,132677926747526,61,23.70464515686035,654.1828285585184,0.3056497726304672,4,12559.49587363601,3.4028234663852886E38,,,,,0,,1
Raw,342504045,21207000000,,,-1177678256793195326,0.0,8.267349147653144,,,0,25,0.0,39,132677931245305,9,40.40510559082031,-181.8525703827811,0.04653434388627603,1,-3523.6053685896504,8.671823306940496E-4,,,,,0,,1
Raw,342504045,21207000000,,,-1177678256793195326,0.0,8.267349147653144,,,0,29,0.0,38,132677921193069,1000000000,28.932971954345703,-618.1665334526037,2.99792458E8,4,-11922.18847029696,3.4028234663852886E38,,,,,1,,1
Raw,342504046,21207000000,,,-1177678256793195326,0.0,8.267349147653144,,,0,31,0.0,47,132677919822008,36,28.23980712890625,-520.6096937982113,0.18417390652636034,1,-10019.856411741486,0.003317409660667181,,,,,0,,1
Raw,342504046,21207000000,,,-1177678256793195326,0.0,8.267349147653144,,,0,32,0.0,39,132677927848743,17,34.76814651489258,129.27537107523722,0.08658854438243457,1,1156.6682451207355,0.001659427653066814,,,,,0,,1
Raw,342504046,21207000000,,,-1177678256793195326,0.0,8.267349147653144,,,0,97,0.0,16,21003067649,1000000000,25.656389236450195,-228.68866509519887,2.99792458E8,2,-0.6846160656243555,3.4028234663852886E38,,,,,0,,3
Raw,342504050,21207000000,,,-1177678256793195326,0.0,8.267349147653144,,,0,98,0.0,99,29931384219,60,29.850135803222656,-379.31637139863983,0.15209276253114767,1,-3038.6061405902933,0.0027121994644403458,,,,,0,,3
Raw,342504050,21207000000,,,-1177678256793195326,0.0,8.267349147653144,,,0,99,0.0,16,21004928231,1000000000,18.56148910522461,338.82215274247574,2.99792458E8,2,1.3538034584601146,3.4028234663852886E38,,,,,0,,3
Raw,342504050,21207000000,,,-1177678256793195326,0.0,8.267349147653144,,,0,100,0.0,16,21003794432,1000000000,30.755308151245117,769.6076346221898,2.99792458E8,2,2.303943410888461,3.4028234663852886E38,,,,,0,,3
Raw,342504051,21207000000,,,-1177678256793195326,0.0,8.267349147653144,,,0,103,0.0,17,2701963,91,26.31061363220215,-753.233400034936,0.22601256825630778,4,-1.503185169309745,3.4028234663852886E38,,,,,0,,3
Raw,342504051,21207000000,,,-1177678256793195326,0.0,8.267349147653144,,,0,104,0.0,99,29928674286,33,40.96341323852539,580.7180253586876,0.04689831306889139,1,10531.917091832705,8.417792269028723E-4,,,,,0,,3
Raw,342504054,21207000000,,,-1177678256793195326,0.0,8.267349147653144,,,0,105,0.0,99,29927521192,44,32.615699768066406,542.0769039461252,0.11048266793943878,1,3795.724945109783,0.0019677800592035055,,,,,0,,3
Raw,342504055,21207000000,,,-1177678256793195326,0.0,8.267349147653144,,,0,106,0.0,99,29925548515,33,38.143184661865234,-169.28914638302751,0.06234782570756589,1,-2427.856860051031,0.0011041456600651145,,,,,0,,3
Nav,6,257,1,-1,3,34,-61,-101,56,10,-52,43,40,63,-9,-85,71,36,76,10,110,63,-2,-119,-12,24,-2,-72,73,5,110,-76,72,34,12,-73,-64,63,-22,-68,-90,28,66,-83,-88
Nav,14,257,1,-1,3,34,-61,-101,56,10,-52,43,40,0,17,-63,-94,8,-72,38,-92,0,5,-119,-3,14,28,97,123,7,86,-84,35,3,-55,44,19,63,-22,60,-22,17,-67,-74,-28
Nav,19,257,1,-1,3,34,-61,-101,56,10,-52,43,40,63,-28,97,-113,57,-123,75,-95,63,-6,73,-35,52,89,122,-70,8,-65,9,-62,0,62,60,-18,63,-23,-72,-96,13,60,-10,-89
Nav,22,257,1,-1,3,34,-61,-101,56,10,-52,43,40,0,10,117,-108,35,-111,17,95,0,8,73,126,39,-68,-86,-93,6,-90,-18,63,29,23,-50,93,63,-24,-8,53,12,68,-8,39
Nav,25,257,1,-1,3,34,-61,-101,56,10,-52,43,40,63,-6,-106,9,30,-62,-33,52,0,6,9,-31,52,7,8,90,9,10,-56,33,37,-98,1,125,63,-23,99,34,22,-64,39,-40
Nav,32,257,1,-1,3,34,-61,-101,56,10,-52,43,40,63,-1,64,-77,47,29,110,-81,0,5,73,-20,3,101,-116,109,7,92,-91,20,11,59,-102,-78,63,-23,-73,126,26,61,119,-57
Fix,gps,53.070998,-1.389591,180.896433,0.000000,4.000000,1493643061000
Raw,342505101,22207000000,,,-1177678256793194939,0.0,8.065571016564707,,,0,2,0.0,39,132678919551372,25,31.407079696655273,-330.45351228540835,0.12893900046134404,1,-1329.03400426578,0.0023037507198750973,,,,,0,,1
Raw,342505101,22207000000,,,-1177678256793194939,0.0,8.065571016564707,,,0,3,0.0,17,121079811,30,28.03781509399414,-139.60899296005658,5.73058909221205,6,-15.9154459106096,3.4028234663852886E38,,,,,0,,1
Raw,342505102,22207000000,,,-1177678256793194939,0.0,8.065571016564707,,,0,6,0.0,47,132678921286759,13,36.7591438293457,-38.00196884508304,0.06795992321220581,1,-807.0807572482472,0.0013194975908845663,,,,,0,,1
Raw,342505102,22207000000,,,-1177678256793194939,0.0,8.065571016564707,,,0,12,0.0,47,132678932487004,16,35.00029754638672,385.95076013800053,0.0851764522921643,1,7767.694074488599,0.0016156630590558052,,,,,0,,1
Raw,342505102,22207000000,,,-1177678256793194939,0.0,8.065571016564707,,,0,14,0.0,47,132678925216922,10,39.20072937011719,-210.8096389287782,0.05207029256257892,1,-4295.73062483195,9.961603209376335E-4,,,,,0,,1
Raw,342505103,22207000000,,,-1177678256793194939,0.0,8.065571016564707,,,0,19,0.0,47,132678919748182,16,35.050498962402344,772.3999421201906,0.08600464100802657,1,15584.376388370883,0.0016063522780314088,,,,,0,,1
Raw,342505103,22207000000,,,-1177678256793194939,0.0,8.065571016564707,,,0,22,0.0,47,132678915644025,9,40.048912048339844,119.85533795812592,0.04918884386402325,1,2386.3050013077013,9.034830727614462E-4,,,,,0,,1
Raw,342505103,22207000000,,,-1177678256793194939,0.0,8.065571016564707,,,0,24,0.0,16,22006745395,1000000000,8.907289505004883,654.7937906741463,2.99792458E8,2,3.9127927742647444,3.4028234663852886E38,,,,,0,,1
Raw,342505104,22207000000,,,-1177678256793194939,0.0,8.065571016564707,,,0,25,0.0,39,132678931245900,10,39.15652084350586,-181.72201753307047,0.053415671738988924,1,-3705.414091604159,0.0010012434795498848,,,,,0,,1
Raw,342505104,22207000000,,,-1177678256793194939,0.0,8.065571016564707,,,0,29,0.0,39,132678921194900,166,28.163354873657227,-619.5030429026892,0.18242005792869143,1,-12541.70246180942,0.0033467384055256844,,,,,1,,1
Raw,342505104,22207000000,,,-1177678256793194939,0.0,8.065571016564707,,,0,31,0.0,47,132678919823712,41,27.18539810180664,-520.5528442607313,0.20748514186024947,1,-10540.422819207097,0.00374558474868536,,,,,0,,1
Raw,342505105,22207000000,,,-1177678256793194939,0.0,8.065571016564707,,,0,32,0.0,39,132678927848326,18,34.31364440917969,129.43666630073142,0.09116416409609529,1,1286.0212362905058,0.0017485716380178928,,,,,0,,1
Raw,342505106,22207000000,,,-1177678256793194939,0.0,8.065571016564707,,,0,97,0.0,16,22003068314,1000000000,22.03603172302246,-228.5050117782257,2.99792458E8,2,-0.6804888878848836,3.4028234663852886E38,,,,,0,,3
Raw,342505106,22207000000,,,-1177678256793194939,0.0,8.065571016564707,,,0,98,0.0,99,931385444,68,28.8095703125,-379.15560445122173,0.17118932268239329,1,-3417.8373764535427,0.0030573830008506775,,,,,0,,3
Raw,342505107,22207000000,,,-1177678256793194939,0.0,8.065571016564707,,,0,99,0.0,16,22004927101,1000000000,25.819541931152344,338.91482294176126,2.99792458E8,2,1.348867872483848,3.4028234663852886E38,,,,,0,,3
Raw,342505107,22207000000,,,-1177678256793194939,0.0,8.065571016564707,,,0,100,0.0,17,3791846,58,30.145803451538086,769.7721165573689,0.14570549716341974,4,618.1323618360586,3.4028234663852886E38,,,,,0,,3
Raw,342505107,22207000000,,,-1177678256793194939,0.0,8.065571016564707,,,0,103,0.0,17,2704763,131,23.149972915649414,-753.2413071648493,0.32499769089856856,4,-754.5834364407954,3.4028234663852886E38,,,,,0,,3
Raw,342505108,22207000000,,,-1177678256793194939,0.0,8.065571016564707,,,0,104,0.0,99,928672346,33,40.45599365234375,580.9250421996071,0.04940903600409524,1,11112.717033224666,8.466235594823956E-4,,,,,0,,3
Raw,342505108,22207000000,,,-1177678256793194939,0.0,8.065571016564707,,,0,105,0.0,99,927519339,50,31.53443145751953,542.1969423579985,0.12494923121555479,1,4337.886051368186,0.00222864025272429,,,,,0,,3
Raw,342505109,22207000000,,,-1177678256793194939,0.0,8.065571016564707,,,0,106,0.0,99,925549046,33,38.64817810058594,-169.04128171796538,0.059085965703814525,1,-2597.046050448005,0.0010417815065011382,,,,,0,,3
Nav,98,769,1,3,1,8,63,48,83,-47,-120,5,-20,-79,34,120
Nav,104,769,1,3,1,8,63,53,-126,97,112,-64,-47,-24,46,-80
Nav,105,769,1,3,1,8,63,48,-81,86,-20,8,78,34,-5,96
Nav,106,769,1,3,1,8,63,49,26,-25,-72,38,-105,-127,-85,24
Fix,gps,53.070998,-1.389586,182.223312,0.000000,4.000000,1493643062000
Raw,342506066,23207000000,,,-1177678256793194551,0.0,8.132500087809152,,,0,2,0.0,39,132679919552465,25,31.237659454345703,-330.3736570897754,0.1314095957972849,4,-1659.420013952914,3.4028234663852886E38,,,,,0,,1
Raw,342506067,23207000000,,,-1177678256793194551,0.0,8.132500087809152,,,0,3,0.0,16,23020080274,1000000000,31.031631469726562,-139.60899296005658,2.99792458E8,2,-2.789593760701999,3.4028234663852886E38,,,,,0,,1
Raw,342506067,23207000000,,,-1177678256793194551,0.0,8.132500087809152,,,0,6,0.0,47,132679921286904,15,35.87677001953125,-37.854672988605586,0.0752019002035515,1,-845.0378065551686,0.0014605863252654672,,,,,0,,1
Raw,342506076,23207000000,,,-1177678256793194551,0.0,8.132500087809152,,,0,12,0.0,47,132679932485669,23,32.19336700439453,386.0080527474154,0.11681301826746554,1,8153.6993128823415,0.0021043650340288877,,,,,0,,1
Raw,342506076,23207000000,,,-1177678256793194551,0.0,8.132500087809152,,,0,14,0.0,47,132679925217622,11,38.56617736816406,-210.49280841294217,0.055945707511494885,1,-4506.42268623187,0.0010716596152633429,,,,,0,,1
Raw,342506077,23207000000,,,-1177678256793194551,0.0,8.132500087809152,,,0,19,0.0,47,132679919745597,14,36.352725982666016,772.370563042668,0.07452459458928301,1,16356.802825290939,0.0013827047077938914,,,,,0,,1
Raw,342506077,23207000000,,,-1177678256793194551,0.0,8.132500087809152,,,0,22,0.0,47,132679915643620,9,39.64580535888672,119.99589400882599,0.05139173881147488,1,2506.2206210656154,9.464015602134168E-4,,,,,0,,1
Raw,342506077,23207000000,,,-1177678256793194551,0.0,8.132500087809152,,,0,24,0.0,16,23006743260,1000000000,26.572988510131836,654.7937906741463,2.99792458E8,2,3.9281545047308244,3.4028234663852886E38,,,,,0,,1
Raw,342506078,23207000000,,,-1177678256793194551,0.0,8.132500087809152,,,0,25,0.0,47,132679931246519,9,39.920413970947266,-181.6694112614275,0.049089009559003555,1,-3887.082471675871,9.665488614700735E-4,,,,,0,,1
Raw,342506078,23207000000,,,-1177678256793194551,0.0,8.132500087809152,,,0,29,0.0,47,132679921197111,166,27.568157196044922,-620.1105967726648,0.1953437659787325,1,-13161.359375695916,0.003584112273529172,,,,,1,,1
Raw,342506078,23207000000,,,-1177678256793194551,0.0,8.132500087809152,,,0,31,0.0,47,132679919825484,41,27.108381271362305,-520.4218312978576,0.2093016469270631,1,-11060.886531202586,0.0037789437919855118,,,,,0,,1
Raw,342506079,23207000000,,,-1177678256793194551,0.0,8.132500087809152,,,0,32,0.0,47,132679927847877,9,40.03323745727539,129.55470236828404,0.04787028714820926,1,1415.5712852723927,9.540754253976047E-4,,,,,0,,1
Raw,342506079,23207000000,,,-1177678256793194551,0.0,8.132500087809152,,,0,97,0.0,16,23003069173,1000000000,21.41036605834961,-228.32313074899173,2.99792458E8,2,-0.6906708250414989,3.4028234663852886E38,,,,,0,,3
Raw,342506084,23207000000,,,-1177678256793194551,0.0,8.132500087809152,,,0,98,0.0,227,57061931386763,64,29.330873489379883,-378.9387718628236,0.1613367967717363,1,-3796.939419043248,0.002879285253584385,,,,,0,,3
Raw,342506084,23207000000,,,-1177678256793194551,0.0,8.132500087809152,,,0,99,0.0,16,23004925970,1000000000,26.958940505981445,339.00565268839455,2.99792458E8,2,1.3651513211175503,3.4028234663852886E38,,,,,0,,3
Raw,342506085,23207000000,,,-1177678256793194551,0.0,8.132500087809152,,,0,100,0.0,17,3789259,54,30.852333068847656,770.1709494635988,0.13437554335960744,4,1388.103792180221,3.4028234663852886E38,,,,,0,,3
Raw,342506086,23207000000,,,-1177678256793194551,0.0,8.132500087809152,,,0,103,0.0,51,2706997,95,25.881437301635742,-752.8465641534021,0.23743679799576545,4,-1507.4701847823062,3.4028234663852886E38,,,,,0,,3
Raw,342506087,23207000000,,,-1177678256793194551,0.0,8.132500087809152,,,0,104,0.0,227,57061928670386,33,38.9636344909668,581.1032934472214,0.057703949550824946,1,11693.701714021987,0.001005329191684723,,,,,0,,3
Raw,342506087,23207000000,,,-1177678256793194551,0.0,8.132500087809152,,,0,105,0.0,227,57061927517529,47,32.02738952636719,542.3206616751763,0.11812966949437725,1,4880.229191972218,0.0021056781988590956,,,,,0,,3
Raw,342506087,23207000000,,,-1177678256793194551,0.0,8.132500087809152,,,0,106,0.0,227,57061925549624,33,39.034889221191406,-168.82857310680652,0.056713299183991095,1,-2766.0098001835413,9.96417016722262E-4,,,,,0,,3
Fix,gps,53.070998,-1.389579,182.307678,0.000000,4.000000,1493643063000
Raw,342507015,24207000000,,,-1177678256793194161,0.0,8.236695922504662,,,0,2,0.0,39,132680919553587,20,33.38115310668945,-330.3464252070137,0.10344143711626719,1,-1989.7732288174445,0.001946740783751011,,,,,0,,1
Raw,342507015,24207000000,,,-1177678256793194161,0.0,8.236695922504662,,,0,3,0.0,16,24020080740,1000000000,31.74942398071289,-139.60899296005658,2.99792458E8,2,-2.7885019992828988,3.4028234663852886E38,,,,,0,,1
Raw,342507015,24207000000,,,-1177678256793194161,0.0,8.236695922504662,,,0,6,0.0,47,132680921287033,16,35.10325241088867,-37.73922292744163,0.08218466829734583,1,-882.8760345293879,0.0015966256614774466,,,,,0,,1
Raw,342507016,24207000000,,,-1177678256793194161,0.0,8.236695922504662,,,0,12,0.0,47,132680932484443,25,31.36326026916504,385.98739877876255,0.12830218440602087,1,8539.727257312501,0.002315402263775468,,,,,0,,1
Raw,342507016,24207000000,,,-1177678256793194161,0.0,8.236695922504662,,,0,14,0.0,47,132680925218295,11,38.25584411621094,-210.56917015678152,0.0579467038444276,1,-4717.019612196123,0.0011106404708698392,,,,,0,,1
