# 
# Header Description:
# 
# Version: 1.4.0.0, Platform: N
# 
# Raw,ElapsedRealtimeMillis,TimeNanos,LeapSecond,TimeUncertaintyNanos,FullBiasNanos,BiasNanos,BiasUncertaintyNanos,DriftNanosPerSecond,DriftUncertaintyNanosPerSecond,HardwareClockDiscontinuityCount, Svid,TimeOffsetNanos,State,ReceivedSvTimeNanos,ReceivedSvTimeUncertaintyNanos,Cn0DbHz,PseudorangeRateMetersPerSecond,PseudorangeRateUncertaintyMetersPerSecond,AccumulatedDeltaRangeState,AccumulatedDeltaRangeMeters,AccumulatedDeltaRangeUncertaintyMeters,CarrierFrequencyHz,CarrierCycles,CarrierPhase,CarrierPhaseUncertainty,MultipathIndicator,SnrInDb,ConstellationType
# 
# Fix,Provider,Latitude,Longitude,Altitude,Speed,Accuracy,(UTC)TimeInMs
# 
# Nav,Svid,Type,Status,MessageId,Sub-messageId,Data(Bytes)
# 
Fix,gps,37.422541,-122.081659,-33.000000,0.000000,3.000000,1467321969000
Raw,72065126,72076939000000,,,-1151285108458178048,0.0,26.542398700257763,-0.634638974724185,5.860137316214145,188,2,0.0,15,422785326362991,13,31.6,-384.09503173828125,0.03420000150799751,0,0.0,0.0,,,,,0,,1
Raw,72065127,72076939000000,,,-1151285108458178048,0.0,26.542398700257763,-0.634638974724185,5.860137316214145,188,3,0.0,15,422785311363053,667,19.4,157.468017578125,3.5330002307891846,0,0.0,0.0,,,,,0,,1
Raw,72065128,72076939000000,,,-1151285108458178048,0.0,26.542398700257763,-0.634638974724185,5.860137316214145,188,6,0.0,15,422785328163761,11,33.0,79.06539154052734,0.03490000218153,0,0.0,0.0,,,,,0,,1
Raw,72065128,72076939000000,,,-1151285108458178048,0.0,26.542398700257763,-0.634638974724185,5.860137316214145,188,12,0.0,15,422785324936930,10,34.6,-442.0742492675781,0.02810000069439411,0,0.0,0.0,,,,,0,,1
Raw,72065129,72076939000000,,,-1151285108458178048,0.0,26.542398700257763,-0.634638974724185,5.860137316214145,188,17,0.0,15,422785318856058,6,38.4,480.7705078125,0.03210000321269035,0,0.0,0.0,,,,,0,,1
Raw,72065129,72076939000000,,,-1151285108458178048,0.0,26.542398700257763,-0.634638974724185,5.860137316214145,188,19,0.0,15,422785325657035,5,40.9,432.1920471191406,0.026900000870227814,0,0.0,0.0,,,,,0,,1
Raw,72065129,72076939000000,,,-1151285108458178048,0.0,26.542398700257763,-0.634638974724185,5.860137316214145,188,24,0.0,15,422785327049795,14,30.5,134.99822998046875,0.03629999980330467,0,0.0,0.0,,,,,0,,1
Raw,72065130,72076939000000,,,-1151285108458178048,0.0,26.542398700257763,-0.634638974724185,5.860137316214145,188,25,0.0,15,422785314216671,19,27.9,-603.3114624023438,0.062300004065036774,0,0.0,0.0,,,,,0,,1
Raw,72065131,72076939000000,,,-1151285108458178048,0.0,26.542398700257763,-0.634638974724185,5.860137316214145,188,28,0.0,15,422785314964982,14,30.5,467.2318115234375,0.046800002455711365,0,0.0,0.0,,,,,0,,1
Fix,gps,37.422541,-122.081659,-33.000000,0.000000,3.000000,1467321970000
Raw,72066156,72077939000000,,,-1151285108458178048,0.0,29.04968823713716,-10.443671668402208,9.725224774803037,188,2,0.0,15,422786326364257,12,32.0,-385.185791015625,0.03290000185370445,0,0.0,0.0,,,,,0,,1
Raw,72066156,72077939000000,,,-1151285108458178048,0.0,29.04968823713716,-10.443671668402208,9.725224774803037,188,3,0.0,15,422786311362544,678,18.8,156.81149291992188,4.2829999923706055,0,0.0,0.0,,,,,0,,1
Raw,72066156,72077939000000,,,-1151285108458178048,0.0,29.04968823713716,-10.443671668402208,9.725224774803037,188,6,0.0,15,422786328163499,11,33.5,77.83619689941406,0.03490000218153,0,0.0,0.0,,,,,0,,1
Raw,72066157,72077939000000,,,-1151285108458178048,0.0,29.04968823713716,-10.443671668402208,9.725224774803037,188,12,0.0,15,422786324938402,10,34.6,-443.2605285644531,0.02810000069439411,0,0.0,0.0,,,,,0,,1
Raw,72066158,72077939000000,,,-1151285108458178048,0.0,29.04968823713716,-10.443671668402208,9.725224774803037,188,17,0.0,15,422786318854444,6,39.1,479.5850524902344,0.016599999740719795,0,0.0,0.0,,,,,0,,1
Raw,72066158,72077939000000,,,-1151285108458178048,0.0,29.04968823713716,-10.443671668402208,9.725224774803037,188,19,0.0,15,422786325655597,4,42.0,430.99188232421875,0.02630000002682209,0,0.0,0.0,,,,,0,,1
Raw,72066159,72077939000000,,,-1151285108458178048,0.0,29.04968823713716,-10.443671668402208,9.725224774803037,188,24,0.0,15,422786327049332,14,30.4,133.99652099609375,0.03629999980330467,0,0.0,0.0,,,,,0,,1
Raw,72066160,72077939000000,,,-1151285108458178048,0.0,29.04968823713716,-10.443671668402208,9.725224774803037,188,25,0.0,15,422786314218724,19,27.5,-604.662841796875,0.062300004065036774,0,0.0,0.0,,,,,0,,1
Raw,72066160,72077939000000,,,-1151285108458178048,0.0,29.04968823713716,-10.443671668402208,9.725224774803037,188,28,0.0,15,422786314963456,14,30.6,465.9770202636719,0.046800002455711365,0,0.0,0.0,,,,,0,,1
Fix,gps,37.422541,-122.081659,-33.000000,0.000000,3.000000,1467321971000
Raw,72067138,72078939000000,,,-1151285108458178048,0.0,29.6857124340022,-14.289709019186859,10.701623520566242,188,2,0.0,15,422787326365557,13,31.8,-381.8869323730469,0.019200000911951065,0,0.0,0.0,,,,,0,,1
Raw,72067139,72078939000000,,,-1151285108458178048,0.0,29.6857124340022,-14.289709019186859,10.701623520566242,188,3,0.0,15,422787311362036,692,18.9,156.64024353027344,5.0329999923706055,0,0.0,0.0,,,,,0,,1
Raw,72067139,72078939000000,,,-1151285108458178048,0.0,29.6857124340022,-14.289709019186859,10.701623520566242,188,6,0.0,15,422787328163247,10,34.4,81.1426773071289,0.0341000035405159,0,0.0,0.0,,,,,0,,1
Raw,72067140,72078939000000,,,-1151285108458178048,0.0,29.6857124340022,-14.289709019186859,10.701623520566242,188,12,0.0,15,422787324939881,10,34.3,-439.9945068359375,0.013100000098347664,0,0.0,0.0,,,,,0,,1
Raw,72067140,72078939000000,,,-1151285108458178048,0.0,29.6857124340022,-14.289709019186859,10.701623520566242,188,17,0.0,15,422787318852838,6,39.1,482.74920654296875,0.016599999740719795,0,0.0,0.0,,,,,0,,1
Raw,72067141,72078939000000,,,-1151285108458178048,0.0,29.6857124340022,-14.289709019186859,10.701623520566242,188,19,0.0,15,422787325654149,5,41.2,434.2537841796875,0.011600000783801079,0,0.0,0.0,,,,,0,,1
Raw,72067141,72078939000000,,,-1151285108458178048,0.0,29.6857124340022,-14.289709019186859,10.701623520566242,188,24,0.0,15,422787327048889,14,30.0,137.23876953125,0.03629999980330467,0,0.0,0.0,,,,,0,,1
Raw,72067141,72078939000000,,,-1151285108458178048,0.0,29.6857124340022,-14.289709019186859,10.701623520566242,188,25,0.0,15,422787314220814,24,25.4,-601.5150146484375,0.4027999937534332,0,0.0,0.0,,,,,0,,1
Raw,72067142,72078939000000,,,-1151285108458178048,0.0,29.6857124340022,-14.289709019186859,10.701623520566242,188,28,0.0,15,422787314961870,14,30.3,469.1634216308594,0.046800002455711365,0,0.0,0.0,,,,,0,,1
Fix,gps,37.422542,-122.081659,-33.000000,0.000000,3.000000,1467321972000
Raw,72068126,72079939000000,,,-1151285108458178048,0.0,24.577559088356793,-3.7789655269998828,5.824066652042431,188,2,0.0,15,422788326366835,10,34.2,-381.07080078125,0.03110000118613243,0,0.0,0.0,,,,,0,,1
Raw,72068127,72079939000000,,,-1151285108458178048,0.0,24.577559088356793,-3.7789655269998828,5.824066652042431,188,3,0.0,15,422788311361550,53,19.6,158.09597778320312,0.972000002861023,0,0.0,0.0,,,,,0,,1
Raw,72068127,72079939000000,,,-1151285108458178048,0.0,24.577559088356793,-3.7789655269998828,5.824066652042431,188,6,0.0,15,422788328162956,7,37.6,81.9459457397461,0.032600000500679016,0,0.0,0.0,,,,,0,,1
Raw,72068128,72079939000000,,,-1151285108458178048,0.0,24.577559088356793,-3.7789655269998828,5.824066652042431,188,12,0.0,15,422788324941336,10,34.9,-439.2646789550781,0.02810000069439411,0,0.0,0.0,,,,,0,,1
Raw,72068128,72079939000000,,,-1151285108458178048,0.0,24.577559088356793,-3.7789655269998828,5.824066652042431,188,17,0.0,15,422788318851225,7,37.5,483.40631103515625,0.01759999990463257,0,0.0,0.0,,,,,0,,1
Raw,72068129,72079939000000,,,-1151285108458178048,0.0,24.577559088356793,-3.7789655269998828,5.824066652042431,188,19,0.0,15,422788325652703,6,39.2,434.9518127441406,0.02710000053048134,0,0.0,0.0,,,,,0,,1
Raw,72068129,72079939000000,,,-1151285108458178048,0.0,24.577559088356793,-3.7789655269998828,5.824066652042431,188,24,0.0,15,422788327048431,16,29.2,138.1685028076172,0.03720000013709068,0,0.0,0.0,,,,,0,,1
Raw,72068129,72079939000000,,,-1151285108458178048,0.0,24.577559088356793,-3.7789655269998828,5.824066652042431,188,25,0.0,15,422788314222768,19,27.5,-600.7326049804688,0.062300004065036774,0,0.0,0.0,,,,,0,,1
Raw,72068130,72079939000000,,,-1151285108458178048,0.0,24.577559088356793,-3.7789655269998828,5.824066652042431,188,28,0.0,15,422788314960322,16,29.4,469.9510803222656,0.047700002789497375,0,0.0,0.0,,,,,0,,1
Fix,gps,37.422538,-122.081655,-32.000000,0.940000,3.000000,1467321973000
Raw,72069163,72080939000000,,,-1151285108458178048,0.0,26.025989427580498,-0.8773335526822746,6.241028530909718,188,2,0.0,15,422789326368111,9,35.7,-379.6016845703125,0.03060000203549862,0,0.0,0.0,,,,,0,,1
Raw,72069164,72080939000000,,,-1151285108458178048,0.0,26.025989427580498,-0.8773335526822746,6.241028530909718,188,3,0.0,15,422789311361078,53,19.3,159.93231201171875,1.0130000114440918,0,0.0,0.0,,,,,0,,1
Raw,72069164,72080939000000,,,-1151285108458178048,0.0,26.025989427580498,-0.8773335526822746,6.241028530909718,188,6,0.0,15,422789328162680,8,36.6,83.51136779785156,0.03320000320672989,0,0.0,0.0,,,,,0,,1
Raw,72069165,72080939000000,,,-1151285108458178048,0.0,26.025989427580498,-0.8773335526822746,6.241028530909718,188,12,0.0,15,422789324942794,6,38.1,-436.57843017578125,0.011099999770522118,0,0.0,0.0,,,,,0,,1
Raw,72069166,72080939000000,,,-1151285108458178048,0.0,26.025989427580498,-0.8773335526822746,6.241028530909718,188,17,0.0,15,422789318849619,5,41.4,485.18707275390625,0.016100000590085983,0,0.0,0.0,,,,,0,,1
Raw,72069166,72080939000000,,,-1151285108458178048,0.0,26.025989427580498,-0.8773335526822746,6.241028530909718,188,19,0.0,15,422789325651241,5,40.6,437.01318359375,0.011900000274181366,0,0.0,0.0,,,,,0,,1
Raw,72069167,72080939000000,,,-1151285108458178048,0.0,26.025989427580498,-0.8773335526822746,6.241028530909718,188,24,0.0,15,422789327047958,10,34.2,139.95468139648438,0.032600000500679016,0,0.0,0.0,,,,,0,,1
Raw,72069167,72080939000000,,,-1151285108458178048,0.0,26.025989427580498,-0.8773335526822746,6.241028530909718,188,25,0.0,15,422789314224721,17,28.4,-598.1144409179688,0.05430000275373459,0,0.0,0.0,,,,,0,,1
Raw,72069168,72080939000000,,,-1151285108458178048,0.0,26.025989427580498,-0.8773335526822746,6.241028530909718,188,28,0.0,15,422789314958742,14,30.8,471.20281982421875,0.046800002455711365,0,0.0,0.0,,,,,0,,1
Fix,gps,37.422537,-122.081654,-32.000000,0.000000,3.000000,1467321974000
Raw,72070155,72081939000000,,,-1151285108458178048,0.0,26.028854335891083,5.2420546041669205,8.573834477690163,188,2,0.0,15,422790326369381,10,34.5,-378.2523498535156,0.03110000118613243,0,0.0,0.0,,,,,0,,1
Raw,72070156,72081939000000,,,-1151285108458178048,0.0,26.028854335891083,5.2420546041669205,8.573834477690163,188,3,0.0,15,422790311360545,61,19.3,159.93231201171875,2.513000011444092,0,0.0,0.0,,,,,0,,1
Raw,72070157,72081939000000,,,-1151285108458178048,0.0,26.028854335891083,5.2420546041669205,8.573834477690163,188,6,0.0,15,422790328162428,9,35.4,84.89096069335938,0.03360000252723694,0,0.0,0.0,,,,,0,,1
Raw,72070158,72081939000000,,,-1151285108458178048,0.0,26.028854335891083,5.2420546041669205,8.573834477690163,188,12,0.0,15,422790324944264,7,37.2,-436.60174560546875,0.026600001379847527,0,0.0,0.0,,,,,0,,1
Raw,72070159,72081939000000,,,-1151285108458178048,0.0,26.028854335891083,5.2420546041669205,8.573834477690163,188,17,0.0,15,422790318847982,7,37.0,486.0668029785156,0.032600000500679016,0,0.0,0.0,,,,,0,,1
Raw,72070160,72081939000000,,,-1151285108458178048,0.0,26.028854335891083,5.2420546041669205,8.573834477690163,188,19,0.0,15,422790325649801,10,34.9,437.6838073730469,0.029600000008940697,0,0.0,0.0,,,,,0,,1
Raw,72070161,72081939000000,,,-1151285108458178048,0.0,26.028854335891083,5.2420546041669205,8.573834477690163,188,24,0.0,15,422790327047494,11,33.1,140.86013793945312,0.033399999141693115,0,0.0,0.0,,,,,0,,1
Raw,72070162,72081939000000,,,-1151285108458178048,0.0,26.028854335891083,5.2420546041669205,8.573834477690163,188,25,0.0,15,422790314226719,24,28.4,-599.0254516601562,2.0174999237060547,0,0.0,0.0,,,,,0,,1
Raw,72070163,72081939000000,,,-1151285108458178048,0.0,26.028854335891083,5.2420546041669205,8.573834477690163,188,28,0.0,15,422790314957198,21,26.8,472.4714050292969,0.13220000267028809,0,0.0,0.0,,,,,0,,1
Fix,gps,37.422538,-122.081655,-32.000000,0.000000,3.000000,1467321975000
Raw,72071136,72082939000000,,,-1151285108458178048,0.0,27.918238629354164,7.618108208434575,10.166290360457703,188,2,0.0,15,422791326370644,9,35.8,-377.7657775878906,0.03060000203549862,0,0.0,0.0,,,,,0,,1
Raw,72071136,72082939000000,,,-1151285108458178048,0.0,27.918238629354164,7.618108208434575,10.166290360457703,188,3,0.0,15,422791311360011,80,19.3,159.93231201171875,4.01300048828125,0,0.0,0.0,,,,,0,,1
Raw,72071136,72082939000000,,,-1151285108458178048,0.0,27.918238629354164,7.618108208434575,10.166290360457703,188,6,0.0,15,422791328162125,6,39.1,85.42460632324219,0.03160000219941139,0,0.0,0.0,,,,,0,,1
Raw,72071137,72082939000000,,,-1151285108458178048,0.0,27.918238629354164,7.618108208434575,10.166290360457703,188,12,0.0,15,422791324945716,8,36.5,-436.1310729980469,0.0272000003606081,0,0.0,0.0,,,,,0,,1
Raw,72071137,72082939000000,,,-1151285108458178048,0.0,27.918238629354164,7.618108208434575,10.166290360457703,188,17,0.0,15,422791318846402,16,29.7,486.6319274902344,0.038700003176927567,0,0.0,0.0,,,,,0,,1
Raw,72071137,72082939000000,,,-1151285108458178048,0.0,27.918238629354164,7.618108208434575,10.166290360457703,188,19,0.0,15,422791325648288,8,36.0,438.2303771972656,0.028699999675154686,0,0.0,0.0,,,,,0,,1
Raw,72071138,72082939000000,,,-1151285108458178048,0.0,27.918238629354164,7.618108208434575,10.166290360457703,188,24,0.0,15,422791327047002,8,36.9,141.56829833984375,0.031700000166893005,0,0.0,0.0,,,,,0,,1
Raw,72071138,72082939000000,,,-1151285108458178048,0.0,27.918238629354164,7.618108208434575,10.166290360457703,188,28,0.0,15,422791314955537,40,21.0,473.3650207519531,0.8675000071525574,0,0.0,0.0,,,,,0,,1
Fix,gps,37.422540,-122.081655,-32.000000,0.000000,3.000000,1467321976000
Raw,72072135,72083939000000,,,-1151285108458178048,0.0,26.711322789196856,9.14559617741969,7.019314983103219,188,2,0.0,15,422792326371905,9,35.5,-379.8750305175781,0.03060000203549862,0,0.0,0.0,,,,,0,,1
Raw,72072135,72083939000000,,,-1151285108458178048,0.0,26.711322789196856,9.14559617741969,7.019314983103219,188,3,0.0,15,422792311359478,108,19.3,159.93231201171875,5.513000011444092,0,0.0,0.0,,,,,0,,1
Raw,72072136,72083939000000,,,-1151285108458178048,0.0,26.711322789196856,9.14559617741969,7.019314983103219,188,6,0.0,15,422792328161837,6,38.8,83.48270416259766,0.03210000321269035,0,0.0,0.0,,,,,0,,1
Raw,72072136,72083939000000,,,-1151285108458178048,0.0,26.711322789196856,9.14559617741969,7.019314983103219,188,12,0.0,15,422792324947169,6,38.9,-438.2500305175781,0.026100000366568565,0,0.0,0.0,,,,,0,,1
Raw,72072136,72083939000000,,,-1151285108458178048,0.0,26.711322789196856,9.14559617741969,7.019314983103219,188,17,0.0,15,422792318844792,17,28.7,484.388916015625,0.04529999941587448,0,0.0,0.0,,,,,0,,1
Raw,72072137,72083939000000,,,-1151285108458178048,0.0,26.711322789196856,9.14559617741969,7.019314983103219,188,19,0.0,15,422792325646838,8,36.2,436.0287170410156,0.028699999675154686,0,0.0,0.0,,,,,0,,1
Raw,72072137,72083939000000,,,-1151285108458178048,0.0,26.711322789196856,9.14559617741969,7.019314983103219,188,24,0.0,15,422792327046531,8,36.6,139.51376342773438,0.031700000166893005,0,0.0,0.0,,,,,0,,1
Raw,72072137,72083939000000,,,-1151285108458178048,0.0,26.711322789196856,9.14559617741969,7.019314983103219,188,25,0.0,15,422792314230727,423,22.4,-598.3975219726562,1.0774999856948853,0,0.0,0.0,,,,,0,,1
Fix,gps,37.422542,-122.081655,-33.000000,0.000000,3.000000,1467321977000
Raw,72073145,72084939000000,,,-1151285108458178048,0.0,27.279416826786473,1.4152277092697578,7.086240077953783,188,2,0.0,15,422793326373184,9,35.2,-380.6263427734375,0.03060000203549862,0,0.0,0.0,,,,,0,,1
Raw,72073148,72084939000000,,,-1151285108458178048,0.0,27.279416826786473,1.4152277092697578,7.086240077953783,188,3,0.0,15,422793311358944,147,19.3,159.93231201171875,7.01300048828125,0,0.0,0.0,,,,,0,,1
Raw,72073148,72084939000000,,,-1151285108458178048,0.0,27.279416826786473,1.4152277092697578,7.086240077953783,188,6,0.0,15,422793328161553,6,38.3,82.75825500488281,0.03210000321269035,0,0.0,0.0,,,,,0,,1
Raw,72073150,72084939000000,,,-1151285108458178048,0.0,27.279416826786473,1.4152277092697578,7.086240077953783,188,12,0.0,15,422793324948640,6,39.6,-439.089111328125,0.010600000619888306,0,0.0,0.0,,,,,0,,1
Raw,72073150,72084939000000,,,-1151285108458178048,0.0,27.279416826786473,1.4152277092697578,7.086240077953783,188,17,0.0,15,422793318843178,16,29.0,483.5046081542969,0.02370000071823597,0,0.0,0.0,,,,,0,,1
Raw,72073151,72084939000000,,,-1151285108458178048,0.0,27.279416826786473,1.4152277092697578,7.086240077953783,188,19,0.0,15,422793325645386,8,36.1,435.18267822265625,0.013700000941753387,0,0.0,0.0,,,,,0,,1
Raw,72073151,72084939000000,,,-1151285108458178048,0.0,27.279416826786473,1.4152277092697578,7.086240077953783,188,24,0.0,15,422793327046068,8,36.5,138.7722625732422,0.031700000166893005,0,0.0,0.0,,,,,0,,1
Raw,72073152,72084939000000,,,-1151285108458178048,0.0,27.279416826786473,1.4152277092697578,7.086240077953783,188,25,0.0,15,422793314232714,491,20.5,-599.0349731445312,1.8875000476837158,0,0.0,0.0,,,,,0,,1
Fix,gps,37.422541,-122.081655,-33.000000,0.000000,3.000000,1467321978000
Raw,72074164,72086358000000,,,-1151285108457893632,0.0,4121.609032154083,-3.405545161127597,7.846579076366193,189,2,0.0,15,422794745090484,8,36.8,-381.7066955566406,0.2533999979496002,0,0.0,0.0,,,,,0,,1
Raw,72074165,72086358000000,,,-1151285108457893632,0.0,4121.609032154083,-3.405545161127597,7.846579076366193,189,6,0.0,15,422794746876682,6,38.3,81.94132232666016,0.2093999981880188,0,0.0,0.0,,,,,0,,1
Raw,72074165,72086358000000,,,-1151285108457893632,0.0,4121.609032154083,-3.405545161127597,7.846579076366193,189,12,0.0,15,422794743666231,6,39.2,-440.1082763671875,0.18879999220371246,0,0.0,0.0,,,,,0,,1
Raw,72074166,72086358000000,,,-1151285108457893632,0.0,4121.609032154083,-3.405545161127597,7.846579076366193,189,17,0.0,15,422794737556362,14,30.4,482.4118347167969,0.47920000553131104,0,0.0,0.0,,,,,0,,1
Raw,72074167,72086358000000,,,-1151285108457893632,0.0,4121.609032154083,-3.405545161127597,7.846579076366193,189,19,0.0,15,422794744358815,8,36.1,434.09466552734375,0.25189998745918274,0,0.0,0.0,,,,,0,,1
Raw,72074168,72086358000000,,,-1151285108457893632,0.0,4121.609032154083,-3.405545161127597,7.846579076366193,189,24,0.0,15,422794745760900,7,37.0,137.99607849121094,0.23350000381469727,0,0.0,0.0,,,,,0,,1
Fix,gps,37.422541,-122.081654,-33.000000,0.000000,3.000000,1467321979000
Raw,72075195,72087373000000,,,-1151285108457359872,0.0,4170.846194028854,-5.1448071201387595,9.883379479182524,190,2,0.0,15,422795759558234,10,34.8,-379.1525573730469,0.3052000105381012,0,0.0,0.0,,,,,0,,1
Raw,72075195,72087373000000,,,-1151285108457359872,0.0,4170.846194028854,-5.1448071201387595,9.883379479182524,190,6,0.0,15,422795761342868,6,38.6,84.34808349609375,0.20190000534057617,0,0.0,0.0,,,,,0,,1
Raw,72075196,72087373000000,,,-1151285108457359872,0.0,4170.846194028854,-5.1448071201387595,9.883379479182524,190,12,0.0,15,422795758134154,6,39.9,-437.64923095703125,0.18129999935626984,0,0.0,0.0,,,,,0,,1
Raw,72075197,72087373000000,,,-1151285108457359872,0.0,4170.846194028854,-5.1448071201387595,9.883379479182524,190,17,0.0,15,422795752021169,17,28.3,484.9552307128906,0.5925000309944153,0,0.0,0.0,,,,,0,,1
Raw,72075197,72087373000000,,,-1151285108457359872,0.0,4170.846194028854,-5.1448071201387595,9.883379479182524,190,19,0.0,15,422795758823821,9,35.6,436.650390625,0.2685000002384186,0,0.0,0.0,,,,,0,,1
Raw,72075198,72087373000000,,,-1151285108457359872,0.0,4170.846194028854,-5.1448071201387595,9.883379479182524,190,24,0.0,15,422795760226894,8,36.1,140.4248504638672,0.2458999902009964,0,0.0,0.0,,,,,0,,1
Fix,gps,37.422544,-122.081652,-34.000000,0.000000,3.000000,1467321980000
Raw,72076157,72088366000000,,,-1151285108456511872,0.0,4183.7189346551895,2.9729928359520765,10.216834303076832,191,2,0.0,15,422796751711247,11,33.8,-379.37322998046875,0.32510000467300415,0,0.0,0.0,,,,,0,,1
Raw,72076158,72088366000000,,,-1151285108456511872,0.0,4183.7189346551895,2.9729928359520765,10.216834303076832,191,6,0.0,15,422796753494318,6,38.1,83.89002990722656,0.1898999959230423,0,0.0,0.0,,,,,0,,1
Raw,72076158,72088366000000,,,-1151285108456511872,0.0,4183.7189346551895,2.9729928359520765,10.216834303076832,191,12,0.0,15,422796750287370,6,39.4,-438.0103454589844,0.16929998993873596,0,0.0,0.0,,,,,0,,1
Raw,72076159,72088366000000,,,-1151285108456511872,0.0,4183.7189346551895,2.9729928359520765,10.216834303076832,191,17,0.0,15,422796744171302,16,29.7,484.43310546875,0.6105000376701355,0,0.0,0.0,,,,,0,,1
Raw,72076159,72088366000000,,,-1151285108456511872,0.0,4183.7189346551895,2.9729928359520765,10.216834303076832,191,19,0.0,15,422796750974125,9,35.5,436.1921691894531,0.2565000057220459,0,0.0,0.0,,,,,0,,1
Raw,72076160,72088366000000,,,-1151285108456511872,0.0,4183.7189346551895,2.9729928359520765,10.216834303076832,191,24,0.0,15,422796752378183,8,36.0,139.99981689453125,0.23389999568462372,0,0.0,0.0,,,,,0,,1
Fix,gps,37.422544,-122.081651,-34.000000,0.000000,3.000000,1467321981000
Raw,72077154,72089356000000,,,-1151285108455935872,0.0,4197.738599032164,2.310721452805747,9.107450630920964,192,2,0.0,15,422797741136575,9,35.3,-381.7009582519531,0.27300000190734863,0,0.0,0.0,,,,,0,,1
Raw,72077155,72089356000000,,,-1151285108455935872,0.0,4197.738599032164,2.310721452805747,9.107450630920964,192,6,0.0,15,422797742918110,6,38.3,81.59614562988281,0.20340000092983246,0,0.0,0.0,,,,,0,,1
Raw,72077155,72089356000000,,,-1151285108455935872,0.0,4197.738599032164,2.310721452805747,9.107450630920964,192,12,0.0,15,422797739712844,6,39.2,-440.5088806152344,0.18279999494552612,0,0.0,0.0,,,,,0,,1
Raw,72077156,72089356000000,,,-1151285108455935872,0.0,4197.738599032164,2.310721452805747,9.107450630920964,192,17,0.0,15,422797733593799,19,27.8,482.05615234375,0.5940000414848328,0,0.0,0.0,,,,,0,,1
Raw,72077156,72089356000000,,,-1151285108455935872,0.0,4197.738599032164,2.310721452805747,9.107450630920964,192,19,0.0,15,422797740396752,9,35.3,433.654052734375,0.27149999141693115,0,0.0,0.0,,,,,0,,1
Raw,72077157,72089356000000,,,-1151285108455935872,0.0,4197.738599032164,2.310721452805747,9.107450630920964,192,24,0.0,15,422797741801789,9,35.6,137.58230590820312,0.27300000190734863,0,0.0,0.0,,,,,0,,1
Fix,gps,37.422545,-122.081648,-33.000000,0.000000,3.000000,1467321982000
Raw,72078160,72090369000000,,,-1151285108455590400,0.0,4212.3571038246155,-6.275266475141761,9.193770984564626,193,2,0.0,15,422798753792476,10,34.9,-382.9095458984375,0.2962000072002411,0,0.0,0.0,,,,,0,,1
Raw,72078160,72090369000000,,,-1151285108455590400,0.0,4212.3571038246155,-6.275266475141761,9.193770984564626,193,6,0.0,15,422798755572488,6,38.3,80.7418212890625,0.19290000200271606,0,0.0,0.0,,,,,0,,1
Raw,72078163,72090369000000,,,-1151285108455590400,0.0,4212.3571038246155,-6.275266475141761,9.193770984564626,193,12,0.0,15,422798752368977,6,39.9,-441.46966552734375,0.17229999601840973,0,0.0,0.0,,,,,0,,1
Raw,72078163,72090369000000,,,-1151285108455590400,0.0,4212.3571038246155,-6.275266475141761,9.193770984564626,193,17,0.0,15,422798746246787,14,30.1,480.87078857421875,0.4926999807357788,0,0.0,0.0,,,,,0,,1
Raw,72078164,72090369000000,,,-1151285108455590400,0.0,4212.3571038246155,-6.275266475141761,9.193770984564626,193,19,0.0,15,422798753050008,8,36.5,432.84619140625,0.23539999127388,0,0.0,0.0,,,,,0,,1
Raw,72078164,72090369000000,,,-1151285108455590400,0.0,4212.3571038246155,-6.275266475141761,9.193770984564626,193,24,0.0,15,422798754455956,8,36.2,136.6644744873047,0.23690000176429749,0,0.0,0.0,,,,,0,,1
Fix,gps,37.422545,-122.081646,-33.000000,0.000000,3.000000,1467321983000
Raw,72079158,72091361000000,,,-1151285108454900480,0.0,4213.763400912285,-10.315723242498997,8.795508893200681,194,2,0.0,15,422799745103628,10,34.6,-382.51019287109375,0.3142000138759613,0,0.0,0.0,,,,,0,,1
Raw,72079159,72091361000000,,,-1151285108454900480,0.0,4213.763400912285,-10.315723242498997,8.795508893200681,194,6,0.0,15,422799746882079,6,38.2,81.32581329345703,0.2093999981880188,0,0.0,0.0,,,,,0,,1
Raw,72079160,72091361000000,,,-1151285108454900480,0.0,4213.763400912285,-10.315723242498997,8.795508893200681,194,12,0.0,15,422799743680324,6,39.9,-441.00543212890625,0.18879999220371246,0,0.0,0.0,,,,,0,,1
Raw,72079161,72091361000000,,,-1151285108454900480,0.0,4213.763400912285,-10.315723242498997,8.795508893200681,194,17,0.0,15,422799737555012,16,29.4,481.4681701660156,0.6000000238418579,0,0.0,0.0,,,,,0,,1
Raw,72079162,72091361000000,,,-1151285108454900480,0.0,4213.763400912285,-10.315723242498997,8.795508893200681,194,19,0.0,15,422799744358389,9,35.3,433.2812194824219,0.2775000035762787,0,0.0,0.0,,,,,0,,1
Raw,72079163,72091361000000,,,-1151285108454900480,0.0,4213.763400912285,-10.315723242498997,8.795508893200681,194,24,0.0,15,422799745765389,7,37.0,137.4490966796875,0.23350000381469727,0,0.0,0.0,,,,,0,,1
Fix,gps,37.422545,-122.081646,-33.000000,0.000000,3.000000,1467321984000
Raw,72080163,72092370000000,,,-1151285108454383488,0.0,4221.263341605663,-8.741674087005782,9.253801012425845,195,2,0.0,15,422800753588096,9,35.4,-379.6787109375,0.29100000858306885,0,0.0,0.0,,,,,0,,1
Raw,72080164,72092370000000,,,-1151285108454383488,0.0,4221.263341605663,-8.741674087005782,9.253801012425845,195,6,0.0,15,422800755364968,6,38.4,84.17727661132812,0.22290000319480896,0,0.0,0.0,,,,,0,,1
Raw,72080164,72092370000000,,,-1151285108454383488,0.0,4221.263341605663,-8.741674087005782,9.253801012425845,195,12,0.0,15,422800752164948,6,39.1,-438.24664306640625,0.20229999721050262,0,0.0,0.0,,,,,0,,1
Raw,72080165,72092370000000,,,-1151285108454383488,0.0,4221.263341605663,-8.741674087005782,9.253801012425845,195,17,0.0,15,422800746036538,14,30.1,483.9412841796875,0.4926999807357788,0,0.0,0.0,,,,,0,,1
Raw,72080166,72092370000000,,,-1151285108454383488,0.0,4221.263341605663,-8.741674087005782,9.253801012425845,195,19,0.0,15,422800752840105,8,36.1,436.09417724609375,0.2638999819755554,0,0.0,0.0,,,,,0,,1
Raw,72080166,72092370000000,,,-1151285108454383488,0.0,4221.263341605663,-8.741674087005782,9.253801012425845,195,24,0.0,15,422800754248117,7,37.4,140.27008056640625,0.24700000882148743,0,0.0,0.0,,,,,0,,1
Fix,gps,37.422544,-122.081645,-33.000000,0.000000,3.000000,1467321985000
Raw,72081147,72093369000000,,,-1151285108453847808,0.0,4222.33808785677,0.20884696649037343,8.936878443730443,196,2,0.0,15,422801752053612,10,34.9,-378.81915283203125,0.2946999967098236,0,0.0,0.0,,,,,0,,1
Raw,72081148,72093369000000,,,-1151285108453847808,0.0,4222.33808785677,0.20884696649037343,8.936878443730443,196,6,0.0,15,422801753828962,6,38.2,84.76534271240234,0.1898999959230423,0,0.0,0.0,,,,,0,,1
Raw,72081149,72093369000000,,,-1151285108453847808,0.0,4222.33808785677,0.20884696649037343,8.936878443730443,196,12,0.0,15,422801750630737,6,39.8,-437.79339599609375,0.16929998993873596,0,0.0,0.0,,,,,0,,1
Raw,72081149,72093369000000,,,-1151285108453847808,0.0,4222.33808785677,0.20884696649037343,8.936878443730443,196,17,0.0,15,422801744499265,14,30.2,484.7156066894531,0.48969998955726624,0,0.0,0.0,,,,,0,,1
Raw,72081150,72093369000000,,,-1151285108453847808,0.0,4222.33808785677,0.20884696649037343,8.936878443730443,196,19,0.0,15,422801751302970,9,35.2,436.81341552734375,0.257999986410141,0,0.0,0.0,,,,,0,,1
Raw,72081151,72093369000000,,,-1151285108453847808,0.0,4222.33808785677,0.20884696649037343,8.936878443730443,196,24,0.0,15,422801752711907,8,36.5,140.76573181152344,0.23389999568462372,0,0.0,0.0,,,,,0,,1
Fix,gps,37.422544,-122.081645,-33.000000,0.000000,3.000000,1467321986000
Raw,72082147,72094361000000,,,-1151285108453843200,0.0,4226.523917168379,2.2635866714803403,8.782100493034548,197,2,0.0,15,422802744050200,9,35.0,-379.9845275878906,0.2775000035762787,0,0.0,0.0,,,,,0,,1
Raw,72082148,72094361000000,,,-1151285108453843200,0.0,4226.523917168379,2.2635866714803403,8.782100493034548,197,6,0.0,15,422802745824008,6,38.3,83.72909545898438,0.2079000025987625,0,0.0,0.0,,,,,0,,1
Raw,72082148,72094361000000,,,-1151285108453843200,0.0,4226.523917168379,2.2635866714803403,8.782100493034548,197,12,0.0,15,422802742627489,6,39.1,-438.8927917480469,0.18729999661445618,0,0.0,0.0,,,,,0,,1
Raw,72082149,72094361000000,,,-1151285108453843200,0.0,4226.523917168379,2.2635866714803403,8.782100493034548,197,17,0.0,15,422802736492995,17,28.9,483.3445739746094,0.5985000133514404,0,0.0,0.0,,,,,0,,1
Raw,72082150,72094361000000,,,-1151285108453843200,0.0,4226.523917168379,2.2635866714803403,8.782100493034548,197,19,0.0,15,422802743296842,9,35.1,435.4556579589844,0.2759999930858612,0,0.0,0.0,,,,,0,,1
Raw,72082151,72094361000000,,,-1151285108453843200,0.0,4226.523917168379,2.2635866714803403,8.782100493034548,197,24,0.0,15,422802744706751,8,36.4,139.67083740234375,0.25189998745918274,0,0.0,0.0,,,,,0,,1
Fix,gps,37.422544,-122.081645,-33.000000,0.000000,3.000000,1467321987000
Raw,72083157,72095372000000,,,-1151285108453810688,0.0,4237.547982484102,-1.9245422307077615,9.290234323719488,198,2,0.0,15,422803755018965,10,34.8,-380.8582458496094,0.29919999837875366,0,0.0,0.0,,,,,0,,1
Raw,72083157,72095372000000,,,-1151285108453810688,0.0,4237.547982484102,-1.9245422307077615,9.290234323719488,198,6,0.0,15,422803756791235,6,38.3,83.13711547851562,0.19439999759197235,0,0.0,0.0,,,,,0,,1
Raw,72083158,72095372000000,,,-1151285108453810688,0.0,4237.547982484102,-1.9245422307077615,9.290234323719488,198,12,0.0,15,422803753596484,6,39.4,-439.6787414550781,0.17379999160766602,0,0.0,0.0,,,,,0,,1
Raw,72083158,72095372000000,,,-1151285108453810688,0.0,4237.547982484102,-1.9245422307077615,9.290234323719488,198,17,0.0,15,422803747458913,16,29.6,482.84136962890625,0.6150000095367432,0,0.0,0.0,,,,,0,,1
Raw,72083159,72095372000000,,,-1151285108453810688,0.0,4237.547982484102,-1.9245422307077615,9.290234323719488,198,19,0.0,15,422803754262881,9,35.3,434.5729064941406,0.26249998807907104,0,0.0,0.0,,,,,0,,1
Raw,72083159,72095372000000,,,-1151285108453810688,0.0,4237.547982484102,-1.9245422307077615,9.290234323719488,198,24,0.0,15,422803755673833,9,35.2,139.09423828125,0.2639999985694885,0,0.0,0.0,,,,,0,,1
Fix,gps,37.422544,-122.081645,-33.000000,0.000000,4.000000,1467321988000
Raw,72084161,72096364000000,,,-1151285108453525248,0.0,4248.483572155237,-4.81713556350472,9.150712205786755,199,2,0.0,15,422804746734808,10,34.4,-382.3078308105469,0.3156999945640564,0,0.0,0.0,,,,,0,,1
Raw,72084162,72096364000000,,,-1151285108453525248,0.0,4248.483572155237,-4.81713556350472,9.150712205786755,199,6,0.0,15,422804748505553,6,38.2,81.53009033203125,0.18240000307559967,0,0.0,0.0,,,,,0,,1
Raw,72084162,72096364000000,,,-1151285108453525248,0.0,4248.483572155237,-4.81713556350472,9.150712205786755,199,12,0.0,15,422804745312547,6,39.2,-441.296142578125,0.19179999828338623,0,0.0,0.0,,,,,0,,1
Raw,72084163,72096364000000,,,-1151285108453525248,0.0,4248.483572155237,-4.81713556350472,9.150712205786755,199,17,0.0,15,422804739171866,19,27.9,480.78546142578125,0.6030000448226929,0,0.0,0.0,,,,,0,,1
Raw,72084164,72096364000000,,,-1151285108453525248,0.0,4248.483572155237,-4.81713556350472,9.150712205786755,199,19,0.0,15,422804745976039,9,35.1,433.2275695800781,0.2789999842643738,0,0.0,0.0,,,,,0,,1
Raw,72084164,72096364000000,,,-1151285108453525248,0.0,4248.483572155237,-4.81713556350472,9.150712205786755,199,24,0.0,15,422804747387952,9,35.6,137.39517211914062,0.28200000524520874,0,0.0,0.0,,,,,0,,1
Fix,gps,37.422544,-122.081645,-33.000000,0.000000,3.000000,1467321989000
Raw,72085155,72097431000000,,,-1151285108453142016,0.0,4269.188269972801,-10.04269608585399,9.507285783704162,200,2,0.0,15,422805813352900,10,34.8,-379.91546630859375,0.08810000121593475,0,0.0,0.0,,,,,0,,1
Raw,72085156,72097431000000,,,-1151285108453142016,0.0,4269.188269972801,-10.04269608585399,9.507285783704162,200,6,0.0,15,422805815121993,6,38.6,83.92632293701172,0.07739999890327454,0,0.0,0.0,,,,,0,,1
Raw,72085157,72097431000000,,,-1151285108453142016,0.0,4269.188269972801,-10.04269608585399,9.507285783704162,200,12,0.0,15,422805811930816,6,39.6,-438.9861755371094,0.06840000301599503,0,0.0,0.0,,,,,0,,1
Raw,72085158,72097431000000,,,-1151285108453142016,0.0,4269.188269972801,-10.04269608585399,9.507285783704162,200,17,0.0,15,422805805786932,17,28.8,483.2991943359375,0.13490000367164612,0,0.0,0.0,,,,,0,,1
Raw,72085158,72097431000000,,,-1151285108453142016,0.0,4269.188269972801,-10.04269608585399,9.507285783704162,200,19,0.0,15,422805812591185,9,35.1,435.3799743652344,0.08250000327825546,0,0.0,0.0,,,,,0,,1
Raw,72085159,72097431000000,,,-1151285108453142016,0.0,4269.188269972801,-10.04269608585399,9.507285783704162,200,24,0.0,15,422805814004203,8,36.0,139.8853302001953,0.08150000125169754,0,0.0,0.0,,,,,0,,1
Fix,gps,37.422544,-122.081645,-33.000000,0.000000,4.000000,1467321990000
Raw,72086160,72098368000000,,,-1151285108452984576,0.0,4243.4316128492355,-2.4145683589382148,6.624141356866508,201,2,0.0,15,422806750196682,10,34.8,-381.236083984375,0.29170000553131104,0,0.0,0.0,,,,,0,,1
Raw,72086162,72098368000000,,,-1151285108452984576,0.0,4243.4316128492355,-2.4145683589382148,6.624141356866508,201,6,0.0,15,422806751964307,6,38.6,82.50992584228516,0.18690000474452972,0,0.0,0.0,,,,,0,,1
Raw,72086163,72098368000000,,,-1151285108452984576,0.0,4243.4316128492355,-2.4145683589382148,6.624141356866508,201,12,0.0,15,422806748774768,6,39.8,-440.37310791015625,0.1662999987602234,0,0.0,0.0,,,,,0,,1
Raw,72086165,72098368000000,,,-1151285108452984576,0.0,4243.4316128492355,-2.4145683589382148,6.624141356866508,201,17,0.0,15,422806742627870,14,30.8,481.68084716796875,0.48669999837875366,0,0.0,0.0,,,,,0,,1
Raw,72086166,72098368000000,,,-1151285108452984576,0.0,4243.4316128492355,-2.4145683589382148,6.624141356866508,201,19,0.0,15,422806749432391,9,35.9,434.0238952636719,0.2549999952316284,0,0.0,0.0,,,,,0,,1
Raw,72086168,72098368000000,,,-1151285108452984576,0.0,4243.4316128492355,-2.4145683589382148,6.624141356866508,201,24,0.0,15,422806750846292,9,35.6,138.7606964111328,0.2565000057220459,0,0.0,0.0,,,,,0,,1
Fix,gps,37.422544,-122.081645,-33.000000,0.000000,4.000000,1467321991000
Raw,72087137,72099363000000,,,-1151285108452078848,0.0,4272.294230759144,-6.899830709214724,8.73493807577167,202,2,0.0,15,422807744292164,9,35.6,-380.21661376953125,0.2775000035762787,0,0.0,0.0,,,,,0,,1
Raw,72087137,72099363000000,,,-1151285108452078848,0.0,4272.294230759144,-6.899830709214724,8.73493807577167,202,6,0.0,15,422807746058211,6,38.5,83.83937072753906,0.2093999981880188,0,0.0,0.0,,,,,0,,1
Raw,72087137,72099363000000,,,-1151285108452078848,0.0,4272.294230759144,-6.899830709214724,8.73493807577167,202,12,0.0,15,422807742870427,6,39.3,-439.2754211425781,0.18729999661445618,0,0.0,0.0,,,,,0,,1
Raw,72087138,72099363000000,,,-1151285108452078848,0.0,4272.294230759144,-6.899830709214724,8.73493807577167,202,17,0.0,15,422807736720544,14,30.5,482.8365173339844,0.47769999504089355,0,0.0,0.0,,,,,0,,1
Raw,72087138,72099363000000,,,-1151285108452078848,0.0,4272.294230759144,-6.899830709214724,8.73493807577167,202,19,0.0,15,422807743525147,8,36.0,435.1665954589844,0.25040000677108765,0,0.0,0.0,,,,,0,,1
Raw,72087138,72099363000000,,,-1151285108452078848,0.0,4272.294230759144,-6.899830709214724,8.73493807577167,202,24,0.0,15,422807744940014,8,36.1,139.79969787597656,0.25189998745918274,0,0.0,0.0,,,,,0,,1
Raw,72088152,72100374000000,,,-1151285108451879424,0.0,4281.1729945242405,-3.624982059801376,8.687733508733654,203,2,0.0,15,422808755094095,9,35.4,-381.79962158203125,0.2639999985694885,0,0.0,0.0,,,,,0,,1
Raw,72088153,72100374000000,,,-1151285108451879424,0.0,4281.1729945242405,-3.624982059801376,8.687733508733654,203,6,0.0,15,422808756858599,6,39.1,82.04367065429688,0.17829999327659607,0,0.0,0.0,,,,,0,,1
Raw,72088153,72100374000000,,,-1151285108451879424,0.0,4281.1729945242405,-3.624982059801376,8.687733508733654,203,12,0.0,15,422808753672577,6,39.5,-441.13482666015625,0.17379999160766602,0,0.0,0.0,,,,,0,,1
Raw,72088153,72100374000000,,,-1151285108451879424,0.0,4281.1729945242405,-3.624982059801376,8.687733508733654,203,17,0.0,15,422808747519553,16,29.2,480.8697814941406,0.6150000095367432,0,0.0,0.0,,,,,0,,1
Raw,72088157,72100374000000,,,-1151285108451879424,0.0,4281.1729945242405,-3.624982059801376,8.687733508733654,203,19,0.0,15,422808754324350,9,35.7,433.2130126953125,0.26249998807907104,0,0.0,0.0,,,,,0,,1
Raw,72088158,72100374000000,,,-1151285108451879424,0.0,4281.1729945242405,-3.624982059801376,8.687733508733654,203,24,0.0,15,422808755740269,9,35.2,138.1290740966797,0.2639999985694885,0,0.0,0.0,,,,,0,,1
Fix,gps,37.422544,-122.081645,-33.000000,0.000000,4.000000,1467321992000
Fix,gps,37.422543,-122.081645,-33.000000,0.000000,4.000000,1467321993000
Raw,72089140,72101365000000,,,-1151285108451109376,0.0,4284.981172531843,-9.747245248836252,8.902141462066359,204,2,0.0,15,422809745325382,9,35.6,-379.92138671875,0.2789999842643738,0,0.0,0.0,,,,,0,,1
Raw,72089141,72101365000000,,,-1151285108451109376,0.0,4284.981172531843,-9.747245248836252,8.902141462066359,204,6,0.0,15,422809747088376,6,38.8,84.18134307861328,0.21090000867843628,0,0.0,0.0,,,,,0,,1
Raw,72089141,72101365000000,,,-1151285108451109376,0.0,4284.981172531843,-9.747245248836252,8.902141462066359,204,12,0.0,15,422809743904043,6,39.7,-439.03973388671875,0.18879999220371246,0,0.0,0.0,,,,,0,,1
Raw,72089142,72101365000000,,,-1151285108451109376,0.0,4284.981172531843,-9.747245248836252,8.902141462066359,204,17,0.0,15,422809737748009,14,30.5,483.02618408203125,0.47920000553131104,0,0.0,0.0,,,,,0,,1
Raw,72089142,72101365000000,,,-1151285108451109376,0.0,4284.981172531843,-9.747245248836252,8.902141462066359,204,19,0.0,15,422809744552960,10,34.9,435.34100341796875,0.3127000033855438,0,0.0,0.0,,,,,0,,1
Raw,72089142,72101365000000,,,-1151285108451109376,0.0,4284.981172531843,-9.747245248836252,8.902141462066359,204,24,0.0,15,422809745969867,8,36.4,140.19886779785156,0.2533999979496002,0,0.0,0.0,,,,,0,,1
Fix,gps,37.422543,-122.081645,-33.000000,0.000000,3.000000,1467321994000
Raw,72090151,72102359000000,,,-1151285108450736384,0.0,4278.0861258506775,-2.970465241181732,8.57654319720178,205,2,0.0,15,422810738953586,8,36.7,-379.8962707519531,0.24289999902248383,0,0.0,0.0,,,,,0,,1
Raw,72090151,72102359000000,,,-1151285108450736384,0.0,4278.0861258506775,-2.970465241181732,8.57654319720178,205,6,0.0,15,422810740715058,6,38.5,84.10882568359375,0.2003999948501587,0,0.0,0.0,,,,,0,,1
Raw,72090156,72102359000000,,,-1151285108450736384,0.0,4278.0861258506775,-2.970465241181732,8.57654319720178,205,12,0.0,15,422810737532446,6,39.5,-439.2499694824219,0.17979998886585236,0,0.0,0.0,,,,,0,,1
Raw,72090156,72102359000000,,,-1151285108450736384,0.0,4278.0861258506775,-2.970465241181732,8.57654319720178,205,17,0.0,15,422810731373397,14,30.5,482.6901550292969,0.4702000021934509,0,0.0,0.0,,,,,0,,1
Raw,72090157,72102359000000,,,-1151285108450736384,0.0,4278.0861258506775,-2.970465241181732,8.57654319720178,205,19,0.0,15,422810738178475,8,36.0,435.307373046875,0.24289999902248383,0,0.0,0.0,,,,,0,,1
Raw,72090157,72102359000000,,,-1151285108450736384,0.0,4278.0861258506775,-2.970465241181732,8.57654319720178,205,24,0.0,15,422810739596324,8,36.6,140.00265502929688,0.2443999946117401,0,0.0,0.0,,,,,0,,1
Fix,gps,37.422543,-122.081645,-33.000000,0.000000,3.000000,1467321995000
Raw,72091160,72103371000000,,,-1151285108450243840,0.0,4267.0113034546375,-4.07935544285699,8.579589910193265,206,2,0.0,15,422811750462399,8,36.4,-380.58929443359375,0.23089998960494995,0,0.0,0.0,,,,,0,,1
Raw,72091161,72103371000000,,,-1151285108450243840,0.0,4267.0113034546375,-4.07935544285699,8.579589910193265,206,6,0.0,15,422811752222289,6,38.8,83.5513916015625,0.188400000333786,0,0.0,0.0,,,,,0,,1
Raw,72091162,72103371000000,,,-1151285108450243840,0.0,4267.0113034546375,-4.07935544285699,8.579589910193265,206,12,0.0,15,422811749041483,6,39.2,-440.0589904785156,0.16779999434947968,0,0.0,0.0,,,,,0,,1
Raw,72091162,72103371000000,,,-1151285108450243840,0.0,4267.0113034546375,-4.07935544285699,8.579589910193265,206,17,0.0,15,422811742879204,14,30.8,482.02813720703125,0.48669999837875366,0,0.0,0.0,,,,,0,,1
Raw,72091163,72103371000000,,,-1151285108450243840,0.0,4267.0113034546375,-4.07935544285699,8.579589910193265,206,19,0.0,15,422811749684501,10,34.6,434.3981628417969,0.29019999504089355,0,0.0,0.0,,,,,0,,1
Raw,72091163,72103371000000,,,-1151285108450243840,0.0,4267.0113034546375,-4.07935544285699,8.579589910193265,206,24,0.0,15,422811751103357,8,36.1,139.37066650390625,0.23240000009536743,0,0.0,0.0,,,,,0,,1
Fix,gps,37.422543,-122.081645,-33.000000,0.000000,3.000000,1467321996000
Raw,72092169,72104364000000,,,-1151285108450231296,0.0,4274.3682861328125,-6.695496552139696,8.541163630286553,207,2,0.0,15,422812743450961,9,35.2,-380.4618225097656,0.2759999930858612,0,0.0,0.0,,,,,0,,1
Raw,72092177,72104364000000,,,-1151285108450231296,0.0,4274.3682861328125,-6.695496552139696,8.541163630286553,207,6,0.0,15,422812745209304,6,38.0,83.3771743774414,0.2079000025987625,0,0.0,0.0,,,,,0,,1
Raw,72092178,72104364000000,,,-1151285108450231296,0.0,4274.3682861328125,-6.695496552139696,8.541163630286553,207,12,0.0,15,422812742030207,5,40.7,-440.20379638671875,0.17030000686645508,0,0.0,0.0,,,,,0,,1
Raw,72092178,72104364000000,,,-1151285108450231296,0.0,4274.3682861328125,-6.695496552139696,8.541163630286553,207,17,0.0,15,422812735865090,14,30.7,481.7809753417969,0.4761999845504761,0,0.0,0.0,,,,,0,,1
Raw,72092179,72104364000000,,,-1151285108450231296,0.0,4274.3682861328125,-6.695496552139696,8.541163630286553,207,19,0.0,15,422812742670390,9,35.9,434.31634521484375,0.2745000123977661,0,0.0,0.0,,,,,0,,1
Raw,72092179,72104364000000,,,-1151285108450231296,0.0,4274.3682861328125,-6.695496552139696,8.541163630286553,207,24,0.0,15,422812744090230,8,36.6,139.24298095703125,0.25189998745918274,0,0.0,0.0,,,,,0,,1
Fix,gps,37.422543,-122.081645,-33.000000,0.000000,3.000000,1467321997000
Raw,72093153,72105378000000,,,-1151285108449354240,0.0,4268.110264092684,-6.907130573101138,8.649960152702173,208,2,0.0,15,422813756575128,9,35.9,-381.73101806640625,0.265500009059906,0,0.0,0.0,,,,,0,,1
Raw,72093153,72105378000000,,,-1151285108449354240,0.0,4268.110264092684,-6.907130573101138,8.649960152702173,208,6,0.0,15,422813758331858,6,38.4,82.65169525146484,0.19740000367164612,0,0.0,0.0,,,,,0,,1
Raw,72093154,72105378000000,,,-1151285108449354240,0.0,4268.110264092684,-6.907130573101138,8.649960152702173,208,12,0.0,15,422813755154562,6,39.8,-440.8736877441406,0.17679999768733978,0,0.0,0.0,,,,,0,,1
Raw,72093154,72105378000000,,,-1151285108449354240,0.0,4268.110264092684,-6.907130573101138,8.649960152702173,208,17,0.0,15,422813748986290,14,30.4,481.1468200683594,0.4657000005245209,0,0.0,0.0,,,,,0,,1
Raw,72093154,72105378000000,,,-1151285108449354240,0.0,4268.110264092684,-6.907130573101138,8.649960152702173,208,19,0.0,15,422813755791765,9,35.3,433.5072021484375,0.2639999985694885,0,0.0,0.0,,,,,0,,1
Raw,72093155,72105378000000,,,-1151285108449354240,0.0,4268.110264092684,-6.907130573101138,8.649960152702173,208,24,0.0,15,422813757212588,9,35.7,138.41566467285156,0.2669999897480011,0,0.0,0.0,,,,,0,,1
Fix,gps,37.422543,-122.081645,-33.000000,0.000000,3.000000,1467321998000
Raw,72094172,72106367000000,,,-1151285108449312512,0.0,4258.495289832354,-10.200828522427747,8.553966823304023,209,2,0.0,15,422814745534755,8,36.3,-377.9564208984375,0.2533999979496002,0,0.0,0.0,,,,,0,,1
Raw,72094172,72106367000000,,,-1151285108449312512,0.0,4258.495289832354,-10.200828522427747,8.553966823304023,209,6,0.0,15,422814747290019,6,38.3,86.26144409179688,0.21090000867843628,0,0.0,0.0,,,,,0,,1
Raw,72094173,72106367000000,,,-1151285108449312512,0.0,4258.495289832354,-10.200828522427747,8.553966823304023,209,12,0.0,15,422814744114410,6,39.4,-437.3984680175781,0.19029998779296875,0,0.0,0.0,,,,,0,,1
Raw,72094173,72106367000000,,,-1151285108449312512,0.0,4258.495289832354,-10.200828522427747,8.553966823304023,209,17,0.0,15,422814737943070,14,30.6,484.6076354980469,0.47920000553131104,0,0.0,0.0,,,,,0,,1
Raw,72094173,72106367000000,,,-1151285108449312512,0.0,4258.495289832354,-10.200828522427747,8.553966823304023,209,19,0.0,15,422814744748763,9,35.2,437.1159973144531,0.2775000035762787,0,0.0,0.0,,,,,0,,1
Raw,72094174,72106367000000,,,-1151285108449312512,0.0,4258.495289832354,-10.200828522427747,8.553966823304023,209,24,0.0,15,422814746170526,9,35.5,142.3647003173828,0.28049999475479126,0,0.0,0.0,,,,,0,,1
Raw,72094174,72106367000000,,,-1151285108449312512,0.0,4258.495289832354,-10.200828522427747,8.553966823304023,209,25,0.0,15,422814733410169,21,26.1,-599.7547607421875,0.5940000414848328,0,0.0,0.0,,,,,0,,1
Fix,gps,37.422543,-122.081645,-33.000000,0.000000,3.000000,1467321999000
Raw,72095143,72107381000000,,,-1151285108449057792,0.0,4253.855906426907,2.042591225224973,8.685717477036079,210,2,0.0,15,422815759281182,9,35.9,-379.6194152832031,0.26999998092651367,0,0.0,0.0,,,,,0,,1
Raw,72095143,72107381000000,,,-1151285108449057792,0.0,4253.855906426907,2.042591225224973,8.685717477036079,210,6,0.0,15,422815761034910,6,38.2,84.62915802001953,0.20190000534057617,0,0.0,0.0,,,,,0,,1
Raw,72095143,72107381000000,,,-1151285108449057792,0.0,4253.855906426907,2.042591225224973,8.685717477036079,210,12,0.0,15,422815757861077,6,39.6,-439.1668395996094,0.17979998886585236,0,0.0,0.0,,,,,0,,1
Raw,72095144,72107381000000,,,-1151285108449057792,0.0,4253.855906426907,2.042591225224973,8.685717477036079,210,17,0.0,15,422815751686627,14,30.1,482.6218566894531,0.4702000021934509,0,0.0,0.0,,,,,0,,1
Raw,72095146,72107381000000,,,-1151285108449057792,0.0,4253.855906426907,2.042591225224973,8.685717477036079,210,19,0.0,15,422815758492484,10,34.9,435.32965087890625,0.3037000000476837,0,0.0,0.0,,,,,0,,1
Raw,72095147,72107381000000,,,-1151285108449057792,0.0,4253.855906426907,2.042591225224973,8.685717477036079,210,24,0.0,15,422815759915232,9,35.8,140.4429931640625,0.26999998092651367,0,0.0,0.0,,,,,0,,1
Fix,gps,37.422543,-122.081645,-33.000000,0.000000,3.000000,1467322000000
Raw,72096156,72108373000000,,,-1151285108448430336,0.0,4253.040067851543,-4.163114601202015,8.62584491437254,211,2,0.0,15,422816750655204,9,35.8,-378.16192626953125,0.2565000057220459,0,0.0,0.0,,,,,0,,1
Raw,72096156,72108373000000,,,-1151285108448430336,0.0,4253.040067851543,-4.163114601202015,8.62584491437254,211,6,0.0,15,422816752407367,6,38.0,86.0968017578125,0.188400000333786,0,0.0,0.0,,,,,0,,1
Raw,72096156,72108373000000,,,-1151285108448430336,0.0,4253.040067851543,-4.163114601202015,8.62584491437254,211,12,0.0,15,422816749235300,6,39.1,-437.7896423339844,0.16779999434947968,0,0.0,0.0,,,,,0,,1
Raw,72096157,72108373000000,,,-1151285108448430336,0.0,4253.040067851543,-4.163114601202015,8.62584491437254,211,17,0.0,15,422816743057689,14,30.1,484.2602233886719,0.48820000886917114,0,0.0,0.0,,,,,0,,1
Raw,72096157,72108373000000,,,-1151285108448430336,0.0,4253.040067851543,-4.163114601202015,8.62584491437254,211,19,0.0,15,422816749863755,9,35.2,436.5782775878906,0.2549999952316284,0,0.0,0.0,,,,,0,,1
Raw,72096157,72108373000000,,,-1151285108448430336,0.0,4253.040067851543,-4.163114601202015,8.62584491437254,211,24,0.0,15,422816751287480,8,36.2,142.18539428710938,0.23240000009536743,0,0.0,0.0,,,,,0,,1
Raw,72097143,72109364000000,,,-1151285108448292480,0.0,4259.814042598009,0.12251055815641756,8.610864248065932,212,2,0.0,15,422817741518533,8,36.0,-379.7240905761719,0.24739998579025269,0,0.0,0.0,,,,,0,,1
Raw,72097144,72109364000000,,,-1151285108448292480,0.0,4259.814042598009,0.12251055815641756,8.610864248065932,212,6,0.0,15,422817743269141,6,38.2,84.5403060913086,0.20489999651908875,0,0.0,0.0,,,,,0,,1
Raw,72097152,72109364000000,,,-1151285108448292480,0.0,4259.814042598009,0.12251055815641756,8.610864248065932,212,12,0.0,15,422817740098788,6,39.3,-439.3720703125,0.1842999905347824,0,0.0,0.0,,,,,0,,1
Raw,72097153,72109364000000,,,-1151285108448292480,0.0,4259.814042598009,0.12251055815641756,8.610864248065932,212,17,0.0,15,422817733918181,14,30.3,482.4911804199219,0.4731999933719635,0,0.0,0.0,,,,,0,,1
Raw,72097154,72109364000000,,,-1151285108448292480,0.0,4259.814042598009,0.12251055815641756,8.610864248065932,212,19,0.0,15,422817740724358,9,35.1,434.9942321777344,0.27149999141693115,0,0.0,0.0,,,,,0,,1
Raw,72097155,72109364000000,,,-1151285108448292480,0.0,4259.814042598009,0.12251055815641756,8.610864248065932,212,24,0.0,15,422817742149074,9,35.6,140.547607421875,0.2745000123977661,0,0.0,0.0,,,,,0,,1
Fix,gps,37.422543,-122.081645,-33.000000,0.000000,3.000000,1467322001000
Fix,gps,37.422543,-122.081645,-33.000000,0.000000,3.000000,1467322002000
Raw,72098136,72110378000000,,,-1151285108447774080,0.0,4244.864918291569,-5.566805897134884,9.62956228137577,213,2,0.0,15,422818755001251,9,35.1,-381.64483642578125,0.2639999985694885,0,0.0,0.0,,,,,0,,1
Raw,72098137,72110378000000,,,-1151285108447774080,0.0,4244.864918291569,-5.566805897134884,9.62956228137577,213,6,0.0,15,422818756750319,6,38.6,82.6152572631836,0.19439999759197235,0,0.0,0.0,,,,,0,,1
Raw,72098139,72110378000000,,,-1151285108447774080,0.0,4244.864918291569,-5.566805897134884,9.62956228137577,213,12,0.0,15,422818753581781,6,39.1,-441.5336608886719,0.17379999160766602,0,0.0,0.0,,,,,0,,1
Raw,72098139,72110378000000,,,-1151285108447774080,0.0,4244.864918291569,-5.566805897134884,9.62956228137577,213,17,0.0,15,422818747398089,14,30.2,480.4935607910156,0.4941999912261963,0,0.0,0.0,,,,,0,,1
Raw,72098140,72110378000000,,,-1151285108447774080,0.0,4244.864918291569,-5.566805897134884,9.62956228137577,213,19,0.0,15,422818754204410,9,35.3,432.96942138671875,0.26249998807907104,0,0.0,0.0,,,,,0,,1
Raw,72098141,72110378000000,,,-1151285108447774080,0.0,4244.864918291569,-5.566805897134884,9.62956228137577,213,24,0.0,15,422818755630108,8,36.6,138.307861328125,0.23839999735355377,0,0.0,0.0,,,,,0,,1
Fix,gps,37.422544,-122.081645,-33.000000,0.000000,3.000000,1467322003000
Raw,72099153,72111367000000,,,-1151285108447405056,0.0,4248.533397912979,-12.264089440684621,9.57573860908374,214,2,0.0,15,422819743633470,9,35.3,-381.0382080078125,0.2759999930858612,0,0.0,0.0,,,,,0,,1
Raw,72099154,72111367000000,,,-1151285108447405056,0.0,4248.533397912979,-12.264089440684621,9.57573860908374,214,6,0.0,15,422819745380985,6,38.3,83.358154296875,0.2079000025987625,0,0.0,0.0,,,,,0,,1
Raw,72099154,72111367000000,,,-1151285108447405056,0.0,4248.533397912979,-12.264089440684621,9.57573860908374,214,12,0.0,15,422819742214159,6,39.6,-440.64825439453125,0.18729999661445618,0,0.0,0.0,,,,,0,,1
Raw,72099154,72111367000000,,,-1151285108447405056,0.0,4248.533397912979,-12.264089440684621,9.57573860908374,214,17,0.0,15,422819736027425,16,29.3,481.19732666015625,0.5985000133514404,0,0.0,0.0,,,,,0,,1
Raw,72099155,72111367000000,,,-1151285108447405056,0.0,4248.533397912979,-12.264089440684621,9.57573860908374,214,19,0.0,15,422819742833866,9,35.2,433.6010437011719,0.2745000123977661,0,0.0,0.0,,,,,0,,1
Raw,72099155,72111367000000,,,-1151285108447405056,0.0,4248.533397912979,-12.264089440684621,9.57573860908374,214,24,0.0,15,422819744260551,8,36.1,139.2633819580078,0.25189998745918274,0,0.0,0.0,,,,,0,,1
Fix,gps,37.422544,-122.081645,-33.000000,0.000000,3.000000,1467322004000
Raw,72100154,72112378000000,,,-1151285108447014912,0.0,4264.512099325657,-9.654102198571875,9.924950291370191,215,2,0.0,15,422820754244731,8,36.0,-380.325439453125,0.2669000029563904,0,0.0,0.0,,,,,0,,1
Raw,72100154,72112378000000,,,-1151285108447014912,0.0,4264.512099325657,-9.654102198571875,9.924950291370191,215,6,0.0,15,422820755990682,6,38.7,84.0527114868164,0.22290000319480896,0,0.0,0.0,,,,,0,,1
Raw,72100154,72112378000000,,,-1151285108447014912,0.0,4264.512099325657,-9.654102198571875,9.924950291370191,215,12,0.0,15,422820752825596,6,39.3,-440.25250244140625,0.20229999721050262,0,0.0,0.0,,,,,0,,1
Raw,72100155,72112378000000,,,-1151285108447014912,0.0,4264.512099325657,-9.654102198571875,9.924950291370191,215,17,0.0,15,422820746635867,13,31.0,481.38970947265625,0.43730002641677856,0,0.0,0.0,,,,,0,,1
Raw,72100155,72112378000000,,,-1151285108447014912,0.0,4264.512099325657,-9.654102198571875,9.924950291370191,215,19,0.0,15,422820753442421,9,35.8,434.14459228515625,0.29100000858306885,0,0.0,0.0,,,,,0,,1
Raw,72100155,72112378000000,,,-1151285108447014912,0.0,4264.512099325657,-9.654102198571875,9.924950291370191,215,24,0.0,15,422820754870063,8,36.2,139.98377990722656,0.2669000029563904,0,0.0,0.0,,,,,0,,1
Fix,gps,37.422544,-122.081645,-33.000000,0.000000,3.000000,1467322005000
Raw,72101158,72113373000000,,,-1151285108446700032,0.0,4261.258989572525,-8.442990441762936,8.611054319693434,216,2,0.0,15,422821748931123,9,35.3,-378.84869384765625,0.25349998474121094,0,0.0,0.0,,,,,0,,1
Raw,72101160,72113373000000,,,-1151285108446700032,0.0,4261.258989572525,-8.442990441762936,8.611054319693434,216,6,0.0,15,422821750675543,6,39.0,85.71570587158203,0.16929998993873596,0,0.0,0.0,,,,,0,,1
Raw,72101161,72113373000000,,,-1151285108446700032,0.0,4261.258989572525,-8.442990441762936,8.611054319693434,216,12,0.0,15,422821747512200,6,38.8,-438.4637145996094,0.1808999925851822,0,0.0,0.0,,,,,0,,1
Raw,72101163,72113373000000,,,-1151285108446700032,0.0,4261.258989572525,-8.442990441762936,8.611054319693434,216,17,0.0,15,422821741319288,14,30.2,483.139892578125,0.4851999878883362,0,0.0,0.0,,,,,0,,1
Raw,72101164,72113373000000,,,-1151285108446700032,0.0,4261.258989572525,-8.442990441762936,8.611054319693434,216,19,0.0,15,422821748126027,9,35.7,435.91412353515625,0.25349998474121094,0,0.0,0.0,,,,,0,,1
Raw,72101165,72113373000000,,,-1151285108446700032,0.0,4261.258989572525,-8.442990441762936,8.611054319693434,216,24,0.0,15,422821749554730,8,36.5,141.8961944580078,0.22939999401569366,0,0.0,0.0,,,,,0,,1
Raw,72102126,72114365000000,,,-1151285108446515712,0.0,4268.547985702753,-2.844876407407399,9.498830379755983,217,2,0.0,15,422822740747943,9,35.8,-378.8056640625,0.27149999141693115,0,0.0,0.0,,,,,0,,1
Raw,72102128,72114365000000,,,-1151285108446515712,0.0,4268.547985702753,-2.844876407407399,9.498830379755983,217,6,0.0,15,422822742490821,6,38.7,85.89246368408203,0.20340000092983246,0,0.0,0.0,,,,,0,,1
Raw,72102128,72114365000000,,,-1151285108446515712,0.0,4268.547985702753,-2.844876407407399,9.498830379755983,217,12,0.0,15,422822739329221,6,39.3,-438.59130859375,0.18279999494552612,0,0.0,0.0,,,,,0,,1
Raw,72102129,72114365000000,,,-1151285108446515712,0.0,4268.547985702753,-2.844876407407399,9.498830379755983,217,17,0.0,15,422822733133267,13,31.2,483.2066345214844,0.41780000925064087,0,0.0,0.0,,,,,0,,1
Raw,72102129,72114365000000,,,-1151285108446515712,0.0,4268.547985702753,-2.844876407407399,9.498830379755983,217,19,0.0,15,422822739940198,9,35.9,435.9291076660156,0.26999998092651367,0,0.0,0.0,,,,,0,,1
Raw,72102130,72114365000000,,,-1151285108446515712,0.0,4268.547985702753,-2.844876407407399,9.498830379755983,217,24,0.0,15,422822741369852,8,36.8,141.77017211914062,0.24739998579025269,0,0.0,0.0,,,,,0,,1
Fix,gps,37.422544,-122.081645,-33.000000,0.000000,3.000000,1467322006000
Fix,gps,37.422544,-122.081645,-33.000000,0.000000,3.000000,1467322007000
Raw,72103131,72115376000000,,,-1151285108445668480,0.0,4264.110699295998,-2.8981871248888047,9.487226467132968,218,2,0.0,15,422823750902094,9,35.9,-379.4176025390625,0.2565000057220459,0,0.0,0.0,,,,,0,,1
Raw,72103132,72115376000000,,,-1151285108445668480,0.0,4264.110699295998,-2.8981871248888047,9.487226467132968,218,6,0.0,15,422823752643382,6,39.0,85.07595825195312,0.17229999601840973,0,0.0,0.0,,,,,0,,1
Raw,72103132,72115376000000,,,-1151285108445668480,0.0,4264.110699295998,-2.8981871248888047,9.487226467132968,218,12,0.0,15,422823749483511,6,39.0,-439.3819885253906,0.16779999434947968,0,0.0,0.0,,,,,0,,1
Raw,72103133,72115376000000,,,-1151285108445668480,0.0,4264.110699295998,-2.8981871248888047,9.487226467132968,218,17,0.0,15,422823743284512,13,31.0,482.33465576171875,0.4328000247478485,0,0.0,0.0,,,,,0,,1
Raw,72103133,72115376000000,,,-1151285108445668480,0.0,4264.110699295998,-2.8981871248888047,9.487226467132968,218,19,0.0,15,422823750091527,9,35.5,435.24334716796875,0.2565000057220459,0,0.0,0.0,,,,,0,,1
Raw,72103133,72115376000000,,,-1151285108445668480,0.0,4264.110699295998,-2.8981871248888047,9.487226467132968,218,24,0.0,15,422823751522207,8,36.9,141.04710388183594,0.23240000009536743,0,0.0,0.0,,,,,0,,1
Raw,72104153,72116371000000,,,-1151285108445284608,0.0,4269.759636372328,-5.88079150130991,9.4365369884978,219,2,0.0,15,422824745519470,8,36.3,-378.9681091308594,0.2533999979496002,0,0.0,0.0,,,,,0,,1
Raw,72104154,72116371000000,,,-1151285108445284608,0.0,4269.759636372328,-5.88079150130991,9.4365369884978,219,6,0.0,15,422824747259245,6,39.2,85.66561126708984,0.1947999894618988,0,0.0,0.0,,,,,0,,1
Raw,72104155,72116371000000,,,-1151285108445284608,0.0,4269.759636372328,-5.88079150130991,9.4365369884978,219,12,0.0,15,422824744101164,6,39.0,-438.8781433105469,0.19029998779296875,0,0.0,0.0,,,,,0,,1
Raw,72104155,72116371000000,,,-1151285108445284608,0.0,4269.759636372328,-5.88079150130991,9.4365369884978,219,17,0.0,15,422824737899005,13,31.0,482.72747802734375,0.4238000214099884,0,0.0,0.0,,,,,0,,1
Raw,72104157,72116371000000,,,-1151285108445284608,0.0,4269.759636372328,-5.88079150130991,9.4365369884978,219,19,0.0,15,422824744706259,8,36.2,435.612548828125,0.25189998745918274,0,0.0,0.0,,,,,0,,1
Raw,72104161,72116371000000,,,-1151285108445284608,0.0,4269.759636372328,-5.88079150130991,9.4365369884978,219,24,0.0,15,422824746137880,8,36.7,141.4558563232422,0.2548999786376953,0,0.0,0.0,,,,,0,,1
Fix,gps,37.422544,-122.081645,-33.000000,0.000000,3.000000,1467322008000
Fix,gps,37.422544,-122.081645,-33.000000,0.000000,3.000000,1467322009000
Raw,72105738,72117381000000,,,-1151285108444560128,0.0,4268.7226086854935,-4.473858251446006,9.594843591123537,220,2,0.0,15,422825754796114,8,36.1,-379.3505859375,0.2669000029563904,0,0.0,0.0,,,,,0,,1
Raw,72105741,72117381000000,,,-1151285108444560128,0.0,4268.7226086854935,-4.473858251446006,9.594843591123537,220,6,0.0,15,422825756534326,6,38.9,85.3544921875,0.22439999878406525,0,0.0,0.0,,,,,0,,1
Raw,72105742,72117381000000,,,-1151285108444560128,0.0,4268.7226086854935,-4.473858251446006,9.594843591123537,220,12,0.0,15,422825753378018,6,39.7,-439.2725524902344,0.2037999927997589,0,0.0,0.0,,,,,0,,1
Raw,72105753,72117381000000,,,-1151285108444560128,0.0,4268.7226086854935,-4.473858251446006,9.594843591123537,220,17,0.0,15,422825747172784,14,30.9,482.29833984375,0.4941999912261963,0,0.0,0.0,,,,,0,,1
Raw,72105754,72117381000000,,,-1151285108444560128,0.0,4268.7226086854935,-4.473858251446006,9.594843591123537,220,19,0.0,15,422825753980195,9,35.0,435.3953857421875,0.29100000858306885,0,0.0,0.0,,,,,0,,1
Raw,72105756,72117381000000,,,-1151285108444560128,0.0,4268.7226086854935,-4.473858251446006,9.594843591123537,220,24,0.0,15,422825755412753,8,36.7,141.2569580078125,0.2683999836444855,0,0.0,0.0,,,,,0,,1
Fix,gps,37.422544,-122.081645,-33.000000,0.000000,3.000000,1467322010000
Raw,72106759,72118377000000,,,-1151285108443993088,0.0,4261.012654751539,-5.701622350549052,9.638078921789715,221,2,0.0,15,422826750230421,8,36.0,-379.3859558105469,0.23089998960494995,0,0.0,0.0,,,,,0,,1
Raw,72106760,72118377000000,,,-1151285108443993088,0.0,4261.012654751539,-5.701622350549052,9.638078921789715,221,6,0.0,15,422826751967131,6,38.5,85.25220489501953,0.18690000474452972,0,0.0,0.0,,,,,0,,1
Raw,72106760,72118377000000,,,-1151285108443993088,0.0,4261.012654751539,-5.701622350549052,9.638078921789715,221,12,0.0,15,422826748812505,6,39.7,-439.6116027832031,0.1662999987602234,0,0.0,0.0,,,,,0,,1
