$GNRMC,021417.00,A,3725.58362,N,12205.61915,W,0.028,65.13,070220,13.06,E,F,V*4A
$GNVTG,65.13,T,52.07,M,0.028,N,0.053,K,D*35
$GNGGA,021417.00,3725.58362,N,12205.61915,W,5,12,0.76,4.4,M,-30.0,M,0.0,2000*52
$GNGSA,A,3,17,02,06,28,12,13,15,24,19,,,,1.48,0.76,1.27,1*0A
$GNGSA,A,3,80,83,73,84,82,,,,,,,,1.48,0.76,1.27,2*0B
$GNGSA,A,3,31,24,12,01,11,33,,,,,,,1.48,0.76,1.27,3*0D
$GNGSA,A,3,37,30,27,28,36,,,,,,,,1.48,0.76,1.27,4*01
$GPGSV,3,1,10,02,25,181,42,06,45,146,45,12,19,292,47,13,17,209,43,1*60
$GPGSV,3,2,10,15,16,241,47,17,52,040,46,19,76,022,40,24,43,305,46,1*6C
$GPGSV,3,3,10,28,33,080,42,30,08,146,39,1*63
$GPGSV,3,1,10,02,25,181,,06,45,146,45,12,19,292,39,13,17,209,,6*6F
$GPGSV,3,2,10,15,16,241,37,17,52,040,43,19,76,022,,24,43,305,48,6*63
$GPGSV,3,3,10,28,33,080,,30,08,146,34,6*6F
$GLGSV,3,1,09,65,01,331,35,72,01,292,16,73,64,352,49,74,25,323,47,1*76
$GLGSV,3,2,09,80,39,117,43,82,22,031,43,83,72,044,30,84,43,202,46,1*79
$GLGSV,3,3,09,,,,53,1*77
$GLGSV,3,1,09,65,01,331,18,72,01,292,,73,64,352,48,74,25,323,,3*7E
$GLGSV,3,2,09,80,39,117,30,82,22,031,30,83,72,044,41,84,43,202,43,3*78
$GLGSV,3,3,09,,,,53,3*75
$GAGSV,3,1,11,01,15,110,32,03,02,318,22,05,10,271,41,09,04,224,21,7*71
$GAGSV,3,2,11,11,11,201,35,12,58,168,40,24,52,320,48,25,04,301,36,7*7A
$GAGSV,3,3,11,26,07,036,26,31,63,082,42,33,52,061,46,7*48
$GAGSV,3,1,11,01,15,110,33,03,02,318,29,05,10,271,42,09,04,224,26,2*7A
$GAGSV,3,2,11,11,11,201,40,12,58,168,43,24,52,320,49,25,04,301,36,2*7F
$GAGSV,3,3,11,26,07,036,32,31,63,082,45,33,52,061,45,2*4C
$GBGSV,3,1,09,04,00,262,,06,07,326,37,16,06,328,32,23,08,133,38,1*77
$GBGSV,3,2,09,27,76,202,47,28,45,047,47,30,22,222,42,36,10,313,32,1*71
$GBGSV,3,3,09,37,60,131,45,1*4F
$GNGLL,3725.58362,N,12205.61915,W,021417.00,A,D*66
$GNRMC,021418.00,A,3725.58362,N,12205.61915,W,0.026,65.13,070220,13.06,E,F,V*4B
$GNVTG,65.13,T,52.07,M,0.026,N,0.049,K,D*30
$GNGGA,021418.00,3725.58362,N,12205.61915,W,5,12,0.76,4.4,M,-30.0,M,0.0,2000*5D
$GNGSA,A,3,17,02,06,28,12,13,15,24,19,,,,1.48,0.76,1.27,1*0A
$GNGSA,A,3,80,83,73,84,82,,,,,,,,1.48,0.76,1.27,2*0B
$GNGSA,A,3,31,24,12,01,11,33,,,,,,,1.48,0.76,1.27,3*0D
$GNGSA,A,3,37,30,27,28,36,,,,,,,,1.48,0.76,1.27,4*01
$GPGSV,3,1,10,02,25,181,42,06,45,146,45,12,19,292,47,13,17,209,43,1*60
$GPGSV,3,2,10,15,16,241,47,17,52,040,46,19,76,022,39,24,43,305,46,1*62
$GPGSV,3,3,10,28,33,080,42,30,08,146,39,1*63
$GPGSV,3,1,10,02,25,181,,06,45,146,45,12,19,292,39,13,17,209,,6*6F
$GPGSV,3,2,10,15,16,241,37,17,52,040,42,19,76,022,,24,43,305,48,6*62
$GPGSV,3,3,10,28,33,080,,30,08,146,34,6*6F
$GLGSV,3,1,09,65,01,331,35,72,01,292,18,73,64,352,49,74,25,323,47,1*78
$GLGSV,3,2,09,80,39,117,43,82,22,031,43,83,72,044,30,84,43,202,46,1*79
$GLGSV,3,3,09,,,,53,1*77
$GLGSV,3,1,09,65,01,331,16,72,01,292,,73,64,352,48,74,25,323,,3*70
$GLGSV,3,2,09,80,39,117,31,82,22,031,30,83,72,044,41,84,43,202,43,3*79
$GLGSV,3,3,09,,,,53,3*75
$GAGSV,3,1,11,01,15,110,32,03,02,318,22,05,10,271,41,09,04,224,21,7*71
$GAGSV,3,2,11,11,11,201,35,12,58,168,40,24,52,320,48,25,04,301,36,7*7A
$GAGSV,3,3,11,26,07,036,26,31,63,082,43,33,52,061,46,7*49
$GAGSV,3,1,11,01,15,110,33,03,02,318,30,05,10,271,43,09,04,224,26,2*73
$GAGSV,3,2,11,11,11,201,40,12,58,168,44,24,52,320,50,25,04,301,37,2*71
$GAGSV,3,3,11,26,07,036,33,31,63,082,46,33,52,061,45,2*4E
$GBGSV,3,1,09,04,00,262,,06,07,326,37,16,06,328,32,23,08,133,38,1*77
$GBGSV,3,2,09,27,77,203,47,28,45,047,47,30,22,222,42,36,10,313,32,1*71
$GBGSV,3,3,09,37,60,131,45,1*4F
$GNGLL,3725.58362,N,12205.61915,W,021418.00,A,D*69
$GNRMC,021419.00,A,3725.58362,N,12205.61915,W,0.028,65.14,070220,13.06,E,F,V*43
$GNVTG,65.14,T,52.08,M,0.028,N,0.053,K,D*3D
$GNGGA,021419.00,3725.58362,N,12205.61915,W,5,12,0.76,4.4,M,-30.0,M,1.0,2000*5D
$GNGSA,A,3,17,02,06,28,12,13,15,24,19,,,,1.48,0.76,1.27,1*0A
$GNGSA,A,3,80,83,73,84,82,,,,,,,,1.48,0.76,1.27,2*0B
$GNGSA,A,3,31,24,12,01,11,33,,,,,,,1.48,0.76,1.27,3*0D
$GNGSA,A,3,37,30,27,28,36,,,,,,,,1.48,0.76,1.27,4*01
$GPGSV,3,1,10,02,25,181,42,06,45,146,46,12,19,292,47,13,17,209,43,1*63
$GPGSV,3,2,10,15,16,241,47,17,52,040,46,19,76,022,40,24,43,305,46,1*6C
$GPGSV,3,3,10,28,33,080,42,30,08,146,39,1*63
$GPGSV,3,1,10,02,25,181,,06,45,146,45,12,19,292,38,13,17,209,,6*6E
$GPGSV,3,2,10,15,16,241,37,17,52,040,43,19,76,022,,24,43,305,48,6*63
$GPGSV,3,3,10,28,33,080,,30,08,146,34,6*6F
$GLGSV,3,1,09,65,01,331,35,72,01,292,19,73,64,352,50,74,25,323,47,1*71
$GLGSV,3,2,09,80,39,117,43,82,22,031,43,83,72,044,31,84,43,202,46,1*78
$GLGSV,3,3,09,,,,53,1*77
$GLGSV,3,1,09,65,01,331,15,72,01,292,,73,64,352,48,74,25,323,,3*73
$GLGSV,3,2,09,80,39,117,30,82,22,031,30,83,72,044,41,84,43,202,43,3*78
$GLGSV,3,3,09,,,,53,3*75
$GAGSV,3,1,11,01,15,110,33,03,02,318,23,05,10,271,41,09,04,224,21,7*71
$GAGSV,3,2,11,11,11,201,35,12,58,168,41,24,52,320,49,25,04,301,36,7*7A
$GAGSV,3,3,11,26,07,036,27,31,63,082,43,33,52,061,46,7*48
$GAGSV,3,1,11,01,15,110,33,03,02,318,30,05,10,271,43,09,04,224,26,2*73
$GAGSV,3,2,11,11,11,201,40,12,58,168,44,24,52,320,50,25,04,301,37,2*71
$GAGSV,3,3,11,26,07,036,33,31,63,082,46,33,52,061,45,2*4E
$GBGSV,3,1,09,04,00,262,,06,07,326,37,16,06,328,32,23,08,133,38,1*77
$GBGSV,3,2,09,27,77,203,47,28,45,047,47,30,22,222,43,36,10,313,32,1*70
$GBGSV,3,3,09,37,60,131,45,1*4F
$GNGLL,3725.58362,N,12205.61915,W,021419.00,A,D*68
$GNRMC,021420.00,A,3725.58362,N,12205.61915,W,0.025,65.15,070220,13.06,E,F,V*45
$GNVTG,65.15,T,52.09,M,0.025,N,0.047,K,D*35
$GNGGA,021420.00,3725.58362,N,12205.61915,W,5,12,0.76,4.4,M,-30.0,M,1.0,2000*57
$GNGSA,A,3,17,02,06,28,12,13,15,24,19,,,,1.48,0.76,1.27,1*0A
$GNGSA,A,3,80,83,73,84,82,,,,,,,,1.48,0.76,1.27,2*0B
$GNGSA,A,3,31,24,12,01,11,33,,,,,,,1.48,0.76,1.27,3*0D
$GNGSA,A,3,37,30,27,28,36,,,,,,,,1.48,0.76,1.27,4*01
$GPGSV,3,1,10,02,25,181,42,06,45,146,46,12,19,292,47,13,17,209,43,1*63
$GPGSV,3,2,10,15,16,241,47,17,52,040,46,19,76,022,40,24,43,305,46,1*6C
$GPGSV,3,3,10,28,33,080,42,30,08,146,38,1*62
$GPGSV,3,1,10,02,25,181,,06,45,146,45,12,19,292,39,13,17,209,,6*6F
$GPGSV,3,2,10,15,16,241,37,17,52,040,43,19,76,022,,24,43,305,48,6*63
$GPGSV,3,3,10,28,33,080,,30,08,146,34,6*6F
$GLGSV,3,1,09,65,01,331,34,72,01,292,20,73,64,352,50,74,25,323,47,1*7A
$GLGSV,3,2,09,80,39,117,43,82,22,031,43,83,72,044,31,84,43,202,46,1*78
$GLGSV,3,3,09,,,,53,1*77
$GLGSV,3,1,09,65,01,331,14,72,01,292,,73,64,352,48,74,25,323,,3*72
$GLGSV,3,2,09,80,39,117,31,82,22,031,30,83,72,044,41,84,43,202,43,3*79
$GLGSV,3,3,09,,,,53,3*75
$GAGSV,3,1,11,01,15,110,33,03,02,318,23,05,10,271,41,09,04,224,22,7*72
$GAGSV,3,2,11,11,11,201,35,12,58,168,41,24,52,320,49,25,04,301,36,7*7A
$GAGSV,3,3,11,26,07,036,27,31,63,082,42,33,52,061,46,7*49
$GAGSV,3,1,11,01,15,110,31,03,02,318,28,05,10,271,41,09,04,224,24,2*78
$GAGSV,3,2,11,11,11,201,39,12,58,168,42,24,52,320,48,25,04,301,35,2*72
$GAGSV,3,3,11,26,07,036,31,31,63,082,44,33,52,061,44,2*4F
$GBGSV,3,1,09,04,00,262,,06,07,326,37,16,06,328,32,23,08,133,38,1*77
$GBGSV,3,2,09,27,77,203,47,28,45,047,47,30,22,222,43,36,10,313,32,1*70
$GBGSV,3,3,09,37,60,131,45,1*4F
$GNGLL,3725.58362,N,12205.61915,W,021420.00,A,D*62
$GNRMC,021421.00,A,3725.58363,N,12205.61914,W,0.022,65.14,070220,13.06,E,F,V*42
$GNVTG,65.14,T,52.09,M,0.022,N,0.041,K,D*35
$GNGGA,021421.00,3725.58363,N,12205.61914,W,5,12,0.76,4.4,M,-30.0,M,1.0,2000*56
$GNGSA,A,3,17,02,06,28,12,13,15,24,19,,,,1.48,0.76,1.27,1*0A
$GNGSA,A,3,80,83,73,84,82,,,,,,,,1.48,0.76,1.27,2*0B
$GNGSA,A,3,31,24,12,01,11,33,,,,,,,1.48,0.76,1.27,3*0D
$GNGSA,A,3,37,30,27,28,36,,,,,,,,1.48,0.76,1.27,4*01
$GPGSV,3,1,10,02,25,181,42,06,45,146,46,12,19,292,47,13,17,209,43,1*63
$GPGSV,3,2,10,15,16,241,47,17,52,040,46,19,76,022,40,24,43,305,46,1*6C
$GPGSV,3,3,10,28,33,080,42,30,08,146,38,1*62
$GPGSV,3,1,10,02,25,181,,06,45,146,45,12,19,292,39,13,17,209,,6*6F
$GPGSV,3,2,10,15,16,241,37,17,52,040,43,19,76,022,,24,43,305,48,6*63
$GPGSV,3,3,10,28,33,080,,30,08,146,34,6*6F
$GLGSV,3,1,09,65,01,331,34,72,01,292,22,73,64,352,50,74,25,323,47,1*78
$GLGSV,3,2,09,80,39,117,43,82,22,031,43,83,72,044,31,84,43,202,46,1*78
$GLGSV,3,3,09,,,,53,1*77
$GLGSV,3,1,09,65,01,331,12,72,01,292,,73,64,352,48,74,25,323,,3*74
$GLGSV,3,2,09,80,39,117,31,82,22,031,30,83,72,044,41,84,43,202,43,3*79
$GLGSV,3,3,09,,,,53,3*75
$GAGSV,3,1,11,01,15,110,33,03,02,318,23,05,10,271,41,09,04,224,21,7*71
$GAGSV,3,2,11,11,11,201,35,12,58,168,41,24,52,320,49,25,04,301,36,7*7A
$GAGSV,3,3,11,26,07,036,27,31,63,082,42,33,52,061,46,7*49
$GAGSV,3,1,11,01,15,110,33,03,02,318,29,05,10,271,43,09,04,224,26,2*7B
$GAGSV,3,2,11,11,11,201,41,12,58,168,44,24,52,320,50,25,04,301,37,2*70
$GAGSV,3,3,11,26,07,036,33,31,63,082,46,33,52,061,46,2*4D
$GBGSV,3,1,09,04,00,262,,06,07,326,37,16,06,328,33,23,08,133,38,1*76
$GBGSV,3,2,09,27,77,203,47,28,45,047,47,30,23,222,43,36,10,313,32,1*71
$GBGSV,3,3,09,37,60,131,45,1*4F
$GNGLL,3725.58363,N,12205.61914,W,021421.00,A,D*63
$GNRMC,021422.00,A,3725.58363,N,12205.61914,W,0.029,65.15,070220,13.06,E,F,V*4B
$GNVTG,65.15,T,52.09,M,0.029,N,0.054,K,D*3B
$GNGGA,021422.00,3725.58363,N,12205.61914,W,5,12,0.76,4.4,M,-30.0,M,0.0,2000*54
$GNGSA,A,3,17,02,06,28,12,13,15,24,19,,,,1.48,0.76,1.27,1*0A
$GNGSA,A,3,80,83,73,84,82,,,,,,,,1.48,0.76,1.27,2*0B
$GNGSA,A,3,31,24,12,01,11,33,,,,,,,1.48,0.76,1.27,3*0D
$GNGSA,A,3,37,30,27,28,36,,,,,,,,1.48,0.76,1.27,4*01
$GPGSV,3,1,10,02,25,181,42,06,45,146,46,12,19,292,47,13,17,209,43,1*63
$GPGSV,3,2,10,15,16,241,47,17,52,040,46,19,76,022,40,24,43,305,46,1*6C
$GPGSV,3,3,10,28,33,080,42,30,08,146,38,1*62
$GPGSV,3,1,10,02,25,181,,06,45,146,45,12,19,292,39,13,17,209,,6*6F
$GPGSV,3,2,10,15,16,241,37,17,52,040,43,19,76,022,,24,43,305,48,6*63
$GPGSV,3,3,10,28,33,080,,30,08,146,34,6*6F
$GLGSV,3,1,09,65,01,331,33,72,01,292,24,73,64,352,50,74,25,323,47,1*79
$GLGSV,3,2,09,80,39,117,44,82,22,031,43,83,72,044,31,84,43,202,46,1*7F
$GLGSV,3,3,09,,,,53,1*77
$GLGSV,3,1,09,65,01,331,10,72,01,292,,73,64,352,48,74,25,323,,3*76
$GLGSV,3,2,09,80,39,117,31,82,22,031,29,83,72,044,41,84,43,202,43,3*71
$GLGSV,3,3,09,,,,53,3*75
$GAGSV,3,1,11,01,15,110,33,03,02,318,25,05,10,271,41,09,04,224,21,7*77
$GAGSV,3,2,11,11,11,201,35,12,58,168,41,24,52,320,49,25,04,301,36,7*7A
$GAGSV,3,3,11,26,07,036,27,31,63,082,43,33,52,061,46,7*48
$GAGSV,3,1,11,01,15,110,32,03,02,318,28,05,10,271,42,09,04,224,25,2*79
$GAGSV,3,2,11,11,11,201,39,12,58,168,43,24,52,320,49,25,04,301,36,2*71
$GAGSV,3,3,11,26,07,036,32,31,63,082,45,33,52,061,44,2*4D
$GBGSV,3,1,09,04,00,262,,06,07,326,37,16,06,328,33,23,08,133,38,1*76
$GBGSV,3,2,09,27,77,203,47,28,45,047,47,30,23,222,43,36,11,313,33,1*71
$GBGSV,3,3,09,37,60,131,45,1*4F
$GNGLL,3725.58363,N,12205.61914,W,021422.00,A,D*60
$GNRMC,021423.00,A,3725.58363,N,12205.61914,W,0.028,65.15,070220,13.06,E,F,V*4B
$GNVTG,65.15,T,52.09,M,0.028,N,0.051,K,D*3F
$GNGGA,021423.00,3725.58363,N,12205.61914,W,5,12,0.76,4.4,M,-30.0,M,0.0,2000*55
$GNGSA,A,3,17,02,06,28,12,13,15,24,19,,,,1.48,0.76,1.27,1*0A
$GNGSA,A,3,80,83,73,84,82,,,,,,,,1.48,0.76,1.27,2*0B
$GNGSA,A,3,31,24,12,01,11,33,,,,,,,1.48,0.76,1.27,3*0D
$GNGSA,A,3,37,30,27,28,36,,,,,,,,1.48,0.76,1.27,4*01
$GPGSV,3,1,10,02,25,181,42,06,45,146,45,12,19,292,47,13,17,209,43,1*60
$GPGSV,3,2,10,15,16,241,47,17,52,040,46,19,76,022,40,24,43,305,46,1*6C
$GPGSV,3,3,10,28,33,080,42,30,08,146,38,1*62
$GPGSV,3,1,10,02,25,181,,06,45,146,45,12,19,292,39,13,17,209,,6*6F
$GPGSV,3,2,10,15,16,241,37,17,52,040,43,19,76,022,,24,43,305,48,6*63
$GPGSV,3,3,10,28,33,080,,30,08,146,34,6*6F
$GLGSV,3,1,09,65,01,331,32,72,01,292,24,73,64,352,50,74,25,323,47,1*78
$GLGSV,3,2,09,80,39,117,44,82,22,031,43,83,72,044,31,84,43,202,46,1*7F
$GLGSV,3,3,09,,,,53,1*77
$GLGSV,3,1,09,65,01,331,11,72,01,292,,73,64,352,48,74,25,323,,3*77
$GLGSV,3,2,09,80,39,117,31,82,22,031,30,83,72,044,41,84,43,202,43,3*79
$GLGSV,3,3,09,,,,53,3*75
$GAGSV,3,1,11,01,15,110,33,03,02,318,25,05,10,271,41,09,03,224,22,7*73
$GAGSV,3,2,11,11,11,201,35,12,58,168,41,24,52,320,49,25,04,301,37,7*7B
$GAGSV,3,3,11,26,07,036,26,31,63,082,43,33,52,061,46,7*49
$GAGSV,3,1,11,01,15,110,33,03,02,318,29,05,10,271,43,09,03,224,26,2*7C
$GAGSV,3,2,11,11,11,201,41,12,58,168,44,24,52,320,50,25,04,301,38,2*7F
$GAGSV,3,3,11,26,07,036,33,31,63,082,46,33,52,061,46,2*4D
$GBGSV,3,1,09,04,00,262,,06,07,326,37,16,06,328,32,23,08,133,38,1*77
$GBGSV,3,2,09,27,77,203,47,28,45,047,47,30,23,222,43,36,11,313,32,1*70
$GBGSV,3,3,09,37,59,132,45,1*46
$GNGLL,3725.58363,N,12205.61914,W,021423.00,A,D*61
$GNRMC,021424.00,A,3725.58363,N,12205.61913,W,0.003,65.15,070220,13.06,E,F,V*42
$GNVTG,65.15,T,52.09,M,0.003,N,0.006,K,D*34
$GNGGA,021424.00,3725.58363,N,12205.61913,W,5,12,0.76,4.4,M,-30.0,M,0.0,2000*55
$GNGSA,A,3,17,02,06,28,12,13,15,24,19,,,,1.48,0.76,1.27,1*0A
$GNGSA,A,3,80,83,73,84,82,,,,,,,,1.48,0.76,1.27,2*0B
$GNGSA,A,3,31,24,12,01,11,33,,,,,,,1.48,0.76,1.27,3*0D
$GNGSA,A,3,37,30,27,28,36,,,,,,,,1.48,0.76,1.27,4*01
$GPGSV,3,1,10,02,25,181,41,06,45,146,46,12,19,292,47,13,17,209,43,1*60
$GPGSV,3,2,10,15,16,241,47,17,52,040,46,19,76,022,40,24,43,305,46,1*6C
$GPGSV,3,3,10,28,33,080,42,30,08,146,38,1*62
$GPGSV,3,1,10,02,25,181,,06,45,146,45,12,19,292,39,13,17,209,,6*6F
$GPGSV,3,2,10,15,16,241,37,17,52,040,43,19,76,022,,24,43,305,48,6*63
$GPGSV,3,3,10,28,33,080,,30,08,146,34,6*6F
$GLGSV,3,1,09,65,01,331,31,72,01,292,24,73,64,352,50,74,25,323,47,1*7B
$GLGSV,3,2,09,80,39,117,44,82,22,031,43,83,72,044,31,84,43,202,46,1*7F
$GLGSV,3,3,09,,,,52,1*76
$GLGSV,3,1,09,65,01,331,11,72,01,292,,73,64,352,47,74,25,323,,3*78
$GLGSV,3,2,09,80,39,117,31,82,22,031,30,83,72,044,41,84,43,202,43,3*79
$GLGSV,3,3,09,,,,52,3*74
$GAGSV,3,1,11,01,15,110,33,03,02,318,26,05,10,271,41,09,03,224,22,7*70
$GAGSV,3,2,11,11,11,201,35,12,58,168,41,24,52,320,49,25,04,301,37,7*7B
$GAGSV,3,3,11,26,07,036,27,31,63,082,42,33,52,061,46,7*49
$GAGSV,3,1,11,01,15,110,33,03,02,318,29,05,10,271,43,09,03,224,24,2*7E
$GAGSV,3,2,11,11,11,201,40,12,58,168,43,24,52,320,50,25,04,301,37,2*76
$GAGSV,3,3,11,26,07,036,33,31,63,082,46,33,52,061,45,2*4E
$GBGSV,3,1,09,04,00,262,,06,07,326,37,16,06,328,32,23,08,133,38,1*77
$GBGSV,3,2,09,27,77,203,47,28,45,047,47,30,23,222,43,36,11,313,32,1*70
$GBGSV,3,3,09,37,59,132,45,1*46
$GNGLL,3725.58363,N,12205.61913,W,021424.00,A,D*61
$GNRMC,021425.00,A,3725.58363,N,12205.61913,W,0.003,65.15,070220,13.06,E,F,V*43
$GNVTG,65.15,T,52.09,M,0.003,N,0.006,K,D*34
$GNGGA,021425.00,3725.58363,N,12205.61913,W,5,12,0.76,4.4,M,-30.0,M,0.0,2000*54
$GNGSA,A,3,17,02,06,28,12,13,15,24,19,,,,1.48,0.76,1.27,1*0A
$GNGSA,A,3,80,83,73,84,82,,,,,,,,1.48,0.76,1.27,2*0B
$GNGSA,A,3,31,24,12,01,11,33,,,,,,,1.48,0.76,1.27,3*0D
$GNGSA,A,3,37,30,27,28,36,,,,,,,,1.48,0.76,1.27,4*01
$GPGSV,3,1,10,02,25,181,41,06,45,146,46,12,19,292,47,13,17,209,43,1*60
$GPGSV,3,2,10,15,16,241,47,17,52,040,46,19,76,022,40,24,43,305,46,1*6C
$GPGSV,3,3,10,28,33,080,42,30,08,146,38,1*62
$GPGSV,3,1,10,02,25,181,,06,45,146,45,12,19,292,39,13,17,209,,6*6F
$GPGSV,3,2,10,15,16,241,37,17,52,040,43,19,76,022,,24,43,305,48,6*63
$GPGSV,3,3,10,28,33,080,,30,08,146,34,6*6F
$GLGSV,3,1,09,65,01,331,30,72,01,292,24,73,64,352,50,74,25,323,47,1*7A
$GLGSV,3,2,09,80,39,117,44,82,22,031,43,83,72,044,32,84,43,202,46,1*7C
$GLGSV,3,3,09,,,,52,1*76
$GLGSV,3,1,09,65,01,331,12,72,01,292,,73,64,352,48,74,25,323,,3*74
$GLGSV,3,2,09,80,39,117,31,82,22,031,29,83,72,044,41,84,43,202,43,3*71
$GLGSV,3,3,09,,,,52,3*74
$GAGSV,3,1,11,01,15,110,33,03,02,318,26,05,10,271,41,09,03,224,22,7*70
$GAGSV,3,2,11,11,11,201,35,12,58,168,41,24,52,320,49,25,04,301,37,7*7B
$GAGSV,3,3,11,26,07,036,26,31,63,082,43,33,52,061,46,7*49
$GAGSV,3,1,11,01,15,110,32,03,02,318,28,05,10,271,41,09,03,224,23,2*7B
$GAGSV,3,2,11,11,11,201,39,12,58,168,42,24,52,320,48,25,04,301,35,2*72
$GAGSV,3,3,11,26,07,036,31,31,63,082,45,33,52,061,43,2*49
$GBGSV,3,1,09,04,00,262,,06,07,326,37,16,06,328,32,23,08,133,38,1*77
$GBGSV,3,2,09,27,77,203,47,28,45,047,47,30,23,222,43,36,11,313,33,1*71
$GBGSV,3,3,09,37,59,132,45,1*46
$GNGLL,3725.58363,N,12205.61913,W,021425.00,A,D*60
$GNRMC,021426.00,A,3725.58363,N,12205.61913,W,0.013,65.15,070220,13.06,E,F,V*41
$GNVTG,65.15,T,52.10,M,0.013,N,0.024,K,D*3D
$GNGGA,021426.00,3725.58363,N,12205.61913,W,5,12,0.76,4.4,M,-30.0,M,0.0,2000*57
$GNGSA,A,3,17,02,06,28,12,13,15,24,19,,,,1.48,0.76,1.27,1*0A
$GNGSA,A,3,80,83,73,84,82,,,,,,,,1.48,0.76,1.27,2*0B
$GNGSA,A,3,31,24,12,01,11,33,,,,,,,1.48,0.76,1.27,3*0D
$GNGSA,A,3,37,30,27,28,36,,,,,,,,1.48,0.76,1.27,4*01
$GPGSV,3,1,10,02,25,181,41,06,45,146,46,12,19,292,47,13,17,209,43,1*60
$GPGSV,3,2,10,15,16,241,47,17,52,040,46,19,76,022,40,24,43,305,46,1*6C
$GPGSV,3,3,10,28,33,080,42,30,08,146,38,1*62
$GPGSV,3,1,10,02,25,181,,06,45,146,45,12,19,292,39,13,17,209,,6*6F
$GPGSV,3,2,10,15,16,241,37,17,52,040,43,19,76,022,,24,43,305,48,6*63
$GPGSV,3,3,10,28,33,080,,30,08,146,34,6*6F
$GLGSV,3,1,09,65,01,331,29,72,01,292,24,73,64,352,50,74,25,323,47,1*72
$GLGSV,3,2,09,80,39,117,44,82,22,031,43,83,72,044,32,84,43,202,46,1*7C
$GLGSV,3,3,09,,,,52,1*76
$GLGSV,3,1,09,65,01,331,13,72,01,292,,73,64,352,48,74,25,323,,3*75
$GLGSV,3,2,09,80,39,117,31,82,22,031,29,83,72,044,41,84,43,202,43,3*71
$GLGSV,3,3,09,,,,52,3*74
$GAGSV,3,1,11,01,15,110,33,03,02,318,26,05,10,271,41,09,03,224,23,7*71
$GAGSV,3,2,11,11,11,201,35,12,58,168,41,24,52,320,49,25,04,301,37,7*7B
$GAGSV,3,3,11,26,07,036,26,31,63,082,43,33,52,061,46,7*49
$GAGSV,3,1,11,01,15,110,33,03,02,318,29,05,10,271,43,09,03,224,24,2*7E
$GAGSV,3,2,11,11,11,201,41,12,58,168,44,24,52,320,50,25,04,301,37,2*70
$GAGSV,3,3,11,26,07,036,33,31,63,082,46,33,52,061,45,2*4E
$GBGSV,3,1,09,04,00,262,,06,07,326,37,16,06,328,32,23,08,133,38,1*77
$GBGSV,3,2,09,27,77,203,47,28,45,047,47,30,23,222,43,36,11,313,33,1*71
$GBGSV,3,3,09,37,59,132,45,1*46
$GNGLL,3725.58363,N,12205.61913,W,021426.00,A,D*63
$GNRMC,021427.00,A,3725.58363,N,12205.61914,W,0.022,65.16,070220,13.06,E,F,V*46
$GNVTG,65.16,T,52.10,M,0.022,N,0.042,K,D*3C
$GNGGA,021427.00,3725.58363,N,12205.61914,W,5,12,0.76,4.4,M,-30.0,M,0.0,2000*51
$GNGSA,A,3,17,02,06,28,12,13,15,24,19,,,,1.48,0.76,1.27,1*0A
$GNGSA,A,3,80,83,73,84,82,,,,,,,,1.48,0.76,1.27,2*0B
$GNGSA,A,3,31,24,12,01,11,33,,,,,,,1.48,0.76,1.27,3*0D
$GNGSA,A,3,37,30,27,28,36,,,,,,,,1.48,0.76,1.27,4*01
$GPGSV,3,1,10,02,25,181,41,06,45,146,46,12,19,292,47,13,17,209,43,1*60
$GPGSV,3,2,10,15,16,241,47,17,52,040,46,19,76,022,40,24,43,305,46,1*6C
$GPGSV,3,3,10,28,33,080,42,30,08,146,37,1*6D
$GPGSV,3,1,10,02,25,181,,06,45,146,45,12,19,292,39,13,17,209,,6*6F
$GPGSV,3,2,10,15,16,241,37,17,52,040,42,19,76,022,,24,43,305,48,6*62
$GPGSV,3,3,10,28,33,080,,30,08,146,34,6*6F
$GLGSV,3,1,09,65,01,331,29,72,01,292,22,73,64,352,50,74,25,323,47,1*74
$GLGSV,3,2,09,80,39,117,44,82,22,031,43,83,72,044,32,84,43,202,46,1*7C
$GLGSV,3,3,09,,,,52,1*76
$GLGSV,3,1,09,65,01,331,12,72,01,292,,73,64,352,48,74,25,323,,3*74
$GLGSV,3,2,09,80,39,117,31,82,22,031,29,83,72,044,41,84,43,202,43,3*71
$GLGSV,3,3,09,,,,52,3*74
$GAGSV,3,1,11,01,15,110,33,03,02,318,26,05,10,271,41,09,03,224,24,7*76
$GAGSV,3,2,11,11,11,201,35,12,58,168,41,24,52,320,48,25,04,301,37,7*7A
$GAGSV,3,3,11,26,07,036,26,31,63,082,43,33,52,061,46,7*49
$GAGSV,3,1,11,01,15,110,32,03,02,318,29,05,10,271,42,09,03,224,23,2*79
$GAGSV,3,2,11,11,11,201,39,12,58,168,42,24,52,320,49,25,04,301,36,2*70
$GAGSV,3,3,11,26,07,036,31,31,63,082,45,33,52,061,44,2*4E
$GBGSV,3,1,09,04,00,262,,06,07,326,37,16,06,328,32,23,08,133,38,1*77
$GBGSV,3,2,09,27,77,203,47,28,45,047,47,30,23,222,44,36,11,313,32,1*77
$GBGSV,3,3,09,37,59,132,45,1*46
$GNGLL,3725.58363,N,12205.61914,W,021427.00,A,D*65
$GNRMC,021428.00,A,3725.58363,N,12205.61914,W,0.009,65.16,070220,13.06,E,F,V*40
$GNVTG,65.16,T,52.10,M,0.009,N,0.017,K,D*35
$GNGGA,021428.00,3725.58363,N,12205.61914,W,5,12,0.76,4.4,M,-30.0,M,0.0,2000*5E
$GNGSA,A,3,17,02,06,28,12,13,15,24,19,,,,1.48,0.76,1.27,1*0A
$GNGSA,A,3,80,83,73,84,82,,,,,,,,1.48,0.76,1.27,2*0B
$GNGSA,A,3,31,24,12,01,11,33,,,,,,,1.48,0.76,1.27,3*0D
$GNGSA,A,3,37,30,27,28,36,,,,,,,,1.48,0.76,1.27,4*01
$GPGSV,3,1,10,02,25,181,42,06,45,146,46,12,19,292,47,13,17,209,43,1*63
$GPGSV,3,2,10,15,16,241,47,17,52,040,46,19,76,022,40,24,43,305,46,1*6C
$GPGSV,3,3,10,28,33,080,42,30,08,146,38,1*62
$GPGSV,3,1,10,02,25,181,,06,45,146,45,12,19,292,39,13,17,209,,6*6F
$GPGSV,3,2,10,15,16,241,37,17,52,040,42,19,76,022,,24,43,305,48,6*62
$GPGSV,3,3,10,28,33,080,,30,08,146,34,6*6F
$GLGSV,3,1,09,65,01,330,29,72,01,292,21,73,64,352,50,74,25,323,47,1*76
$GLGSV,3,2,09,80,39,117,44,82,22,031,43,83,72,044,32,84,43,202,46,1*7C
$GLGSV,3,3,09,,,,52,1*76
$GLGSV,3,1,09,65,01,330,14,72,01,292,,73,64,352,48,74,25,323,,3*73
$GLGSV,3,2,09,80,39,117,31,82,22,031,29,83,72,044,41,84,43,202,43,3*71
$GLGSV,3,3,09,,,,52,3*74
$GAGSV,3,1,11,01,15,110,33,03,02,318,27,05,10,271,41,09,03,224,24,7*77
$GAGSV,3,2,11,11,11,201,35,12,58,168,41,24,52,320,49,25,04,301,37,7*7B
$GAGSV,3,3,11,26,07,036,26,31,63,082,43,33,52,061,46,7*49
$GAGSV,3,1,11,01,15,110,33,03,02,318,30,05,10,271,43,09,03,224,24,2*76
$GAGSV,3,2,11,11,11,201,41,12,58,168,44,24,52,320,50,25,04,301,38,2*7F
$GAGSV,3,3,11,26,07,036,33,31,63,082,46,33,52,061,45,2*4E
$GBGSV,3,1,09,04,00,262,,06,07,326,37,16,06,328,32,23,08,133,38,1*77
$GBGSV,3,2,09,27,77,203,47,28,45,047,47,30,23,222,44,36,11,313,32,1*77
$GBGSV,3,3,09,37,59,132,45,1*46
$GNGLL,3725.58363,N,12205.61914,W,021428.00,A,D*6A
$GNRMC,021429.00,A,3725.58363,N,12205.61913,W,0.006,65.16,070220,13.06,E,F,V*49
$GNVTG,65.16,T,52.10,M,0.006,N,0.012,K,D*3F
$GNGGA,021429.00,3725.58363,N,12205.61913,W,5,12,0.76,4.4,M,-30.0,M,0.0,2000*58
$GNGSA,A,3,17,02,06,28,12,13,15,24,19,,,,1.48,0.76,1.27,1*0A
$GNGSA,A,3,80,83,73,84,82,,,,,,,,1.48,0.76,1.27,2*0B
$GNGSA,A,3,31,24,12,01,11,33,,,,,,,1.48,0.76,1.27,3*0D
$GNGSA,A,3,37,30,27,28,36,,,,,,,,1.48,0.76,1.27,4*01
$GPGSV,3,1,10,02,25,181,42,06,45,146,46,12,19,292,48,13,17,209,43,1*6C
$GPGSV,3,2,10,15,16,241,47,17,52,040,46,19,76,022,40,24,43,305,46,1*6C
$GPGSV,3,3,10,28,33,080,42,30,08,146,37,1*6D
$GPGSV,3,1,10,02,25,181,,06,45,146,45,12,19,292,39,13,17,209,,6*6F
$GPGSV,3,2,10,15,16,241,37,17,52,040,42,19,76,022,,24,43,305,48,6*62
$GPGSV,3,3,10,28,33,080,,30,08,146,34,6*6F
$GLGSV,3,1,09,65,01,330,31,72,01,292,21,73,64,352,50,74,25,323,47,1*7F
$GLGSV,3,2,09,80,39,117,44,82,22,031,43,83,72,044,32,84,43,202,46,1*7C
$GLGSV,3,3,09,,,,52,1*76
$GLGSV,3,1,09,65,01,330,14,72,01,292,,73,64,352,48,74,25,323,,3*73
$GLGSV,3,2,09,80,39,117,30,82,22,031,29,83,72,044,41,84,43,202,43,3*70
$GLGSV,3,3,09,,,,52,3*74
$GAGSV,3,1,11,01,15,110,33,03,02,318,27,05,10,271,41,09,03,224,25,7*76
$GAGSV,3,2,11,11,11,201,35,12,58,168,41,24,52,320,48,25,04,301,37,7*7A
$GAGSV,3,3,11,26,07,036,26,31,63,082,43,33,52,061,46,7*49
$GAGSV,3,1,11,01,15,110,33,03,02,318,30,05,10,271,42,09,03,224,23,2*70
$GAGSV,3,2,11,11,11,201,40,12,58,168,43,24,52,320,49,25,04,301,37,2*7E
$GAGSV,3,3,11,26,07,036,32,31,63,082,46,33,52,061,45,2*4F
$GBGSV,3,1,09,04,00,262,,06,07,326,37,16,06,328,33,23,08,133,38,1*76
$GBGSV,3,2,09,27,77,203,47,28,45,047,47,30,23,222,44,36,11,313,32,1*77
$GBGSV,3,3,09,37,59,132,45,1*46
$GNGLL,3725.58363,N,12205.61913,W,021429.00,A,D*6C
$GNRMC,021430.00,A,3725.58363,N,12205.61913,W,0.007,65.16,070220,13.06,E,F,V*40
$GNVTG,65.16,T,52.11,M,0.007,N,0.013,K,D*3E
$GNGGA,021430.00,3725.58363,N,12205.61913,W,5,12,0.76,4.4,M,-30.0,M,0.0,2000*50
$GNGSA,A,3,17,02,06,28,12,13,15,24,19,,,,1.48,0.76,1.27,1*0A
$GNGSA,A,3,80,83,73,84,82,,,,,,,,1.48,0.76,1.27,2*0B
$GNGSA,A,3,31,24,12,01,11,33,,,,,,,1.48,0.76,1.27,3*0D
$GNGSA,A,3,37,30,27,28,36,,,,,,,,1.48,0.76,1.27,4*01
$GPGSV,3,1,10,02,25,181,41,06,45,146,45,12,19,292,48,13,17,209,43,1*6C
$GPGSV,3,2,10,15,16,241,47,17,52,040,46,19,76,022,40,24,43,305,46,1*6C
$GPGSV,3,3,10,28,33,080,42,30,08,146,38,1*62
$GPGSV,3,1,10,02,25,181,,06,45,146,45,12,19,292,39,13,17,209,,6*6F
$GPGSV,3,2,10,15,16,241,37,17,52,040,42,19,76,022,,24,43,305,48,6*62
$GPGSV,3,3,10,28,33,080,,30,08,146,34,6*6F
$GLGSV,3,1,09,65,01,330,32,72,01,292,20,73,64,352,50,74,25,323,47,1*7D
$GLGSV,3,2,09,80,39,117,44,82,22,031,43,83,72,044,32,84,43,202,46,1*7C
$GLGSV,3,3,09,,,,52,1*76
$GLGSV,3,1,09,65,01,330,15,72,01,292,,73,64,352,48,74,25,323,,3*72
$GLGSV,3,2,09,80,39,117,30,82,22,031,29,83,72,044,42,84,43,202,43,3*73
$GLGSV,3,3,09,,,,52,3*74
$GAGSV,3,1,11,01,15,110,33,03,02,318,27,05,10,271,42,09,03,224,25,7*75
$GAGSV,3,2,11,11,11,201,35,12,58,168,41,24,52,320,48,25,04,301,37,7*7A
$GAGSV,3,3,11,26,07,036,26,31,63,082,43,33,52,061,46,7*49
$GAGSV,3,1,11,01,15,110,33,03,02,318,31,05,10,271,43,09,03,224,24,2*77
$GAGSV,3,2,11,11,11,201,41,12,58,168,44,24,52,320,50,25,04,301,38,2*7F
$GAGSV,3,3,11,26,07,036,33,31,63,082,46,33,52,061,45,2*4E
$GBGSV,3,1,09,04,00,262,,06,07,326,37,16,06,328,33,23,08,133,38,1*76
$GBGSV,3,2,09,27,77,203,47,28,45,047,47,30,23,222,44,36,11,313,32,1*77
$GBGSV,3,3,09,37,59,132,45,1*46
$GNGLL,3725.58363,N,12205.61913,W,021430.00,A,D*64
$GNRMC,021431.00,A,3725.58363,N,12205.61913,W,0.012,65.17,070220,13.06,E,F,V*44
$GNVTG,65.17,T,52.11,M,0.012,N,0.022,K,D*39
$GNGGA,021431.00,3725.58363,N,12205.61913,W,5,12,0.76,4.4,M,-30.0,M,0.0,2000*51
$GNGSA,A,3,17,02,06,28,12,13,15,24,19,,,,1.48,0.76,1.27,1*0A
$GNGSA,A,3,80,83,73,84,82,,,,,,,,1.48,0.76,1.27,2*0B
$GNGSA,A,3,31,24,12,01,11,33,,,,,,,1.48,0.76,1.27,3*0D
$GNGSA,A,3,37,30,27,28,36,,,,,,,,1.48,0.76,1.27,4*01
$GPGSV,3,1,10,02,25,181,42,06,45,146,45,12,19,292,48,13,17,209,43,1*6F
$GPGSV,3,2,10,15,16,241,47,17,52,040,46,19,76,022,40,24,43,305,46,1*6C
$GPGSV,3,3,10,28,33,080,42,30,08,146,37,1*6D
$GPGSV,3,1,10,02,25,181,,06,45,146,45,12,19,292,39,13,17,209,,6*6F
$GPGSV,3,2,10,15,16,241,37,17,52,040,42,19,76,022,,24,43,305,48,6*62
$GPGSV,3,3,10,28,33,080,,30,08,146,34,6*6F
$GLGSV,3,1,09,65,01,330,33,72,01,292,19,73,64,352,50,74,25,323,47,1*76
$GLGSV,3,2,09,80,39,117,44,82,22,031,43,83,72,044,32,84,43,202,46,1*7C
$GLGSV,3,3,09,,,,52,1*76
$GLGSV,3,1,09,65,01,330,16,72,01,292,,73,64,352,47,74,25,323,,3*7E
$GLGSV,3,2,09,80,39,117,30,82,22,031,29,83,72,044,42,84,43,202,43,3*73
$GLGSV,3,3,09,,,,52,3*74
$GAGSV,3,1,11,01,15,110,33,03,02,318,27,05,10,271,42,09,03,224,24,7*74
$GAGSV,3,2,11,11,11,201,35,12,58,168,41,24,52,320,48,25,04,301,37,7*7A
$GAGSV,3,3,11,26,07,036,26,31,63,082,43,33,52,061,46,7*49
$GAGSV,3,1,11,01,15,110,33,03,02,318,31,05,10,271,43,09,03,224,24,2*77
$GAGSV,3,2,11,11,11,201,41,12,58,168,44,24,52,320,50,25,04,301,38,2*7F
$GAGSV,3,3,11,26,07,036,33,31,63,082,46,33,52,061,46,2*4D
$GBGSV,3,1,09,04,00,262,,06,07,326,37,16,06,328,33,23,08,133,38,1*76
$GBGSV,3,2,09,27,77,203,47,28,45,047,47,30,23,222,44,36,11,313,32,1*77
$GBGSV,3,3,09,37,59,132,45,1*46
$GNGLL,3725.58363,N,12205.61913,W,021431.00,A,D*65
$GNRMC,021432.00,A,3725.58364,N,12205.61913,W,0.011,65.16,070220,13.06,E,F,V*42
$GNVTG,65.16,T,52.10,M,0.011,N,0.021,K,D*39
$GNGGA,021432.00,3725.58364,N,12205.61913,W,5,12,0.76,4.4,M,-30.0,M,0.0,2000*55
$GNGSA,A,3,17,02,06,28,12,13,15,24,19,,,,1.48,0.76,1.27,1*0A
$GNGSA,A,3,80,83,73,84,82,,,,,,,,1.48,0.76,1.27,2*0B
$GNGSA,A,3,31,24,12,01,11,33,,,,,,,1.48,0.76,1.27,3*0D
$GNGSA,A,3,37,30,27,28,36,,,,,,,,1.48,0.76,1.27,4*01
$GPGSV,3,1,10,02,25,181,42,06,45,146,46,12,19,292,48,13,17,209,43,1*6C
$GPGSV,3,2,10,15,16,241,47,17,52,040,46,19,76,022,40,24,43,305,46,1*6C
$GPGSV,3,3,10,28,33,080,42,30,08,146,37,1*6D
$GPGSV,3,1,10,02,25,181,,06,45,146,45,12,19,292,39,13,17,209,,6*6F
$GPGSV,3,2,10,15,16,241,37,17,52,040,42,19,76,022,,24,43,305,48,6*62
$GPGSV,3,3,10,28,33,080,,30,08,146,34,6*6F
$GLGSV,3,1,09,65,01,330,34,72,01,292,18,73,64,352,50,74,25,323,47,1*70
$GLGSV,3,2,09,80,39,117,44,82,22,031,43,83,72,044,32,84,43,202,46,1*7C
$GLGSV,3,3,09,,,,52,1*76
$GLGSV,3,1,09,65,01,330,16,72,01,292,,73,64,352,47,74,25,323,,3*7E
$GLGSV,3,2,09,80,39,117,30,82,22,031,29,83,72,044,42,84,43,202,43,3*73
$GLGSV,3,3,09,,,,52,3*74
$GAGSV,3,1,11,01,15,110,33,03,02,318,27,05,10,271,42,09,03,224,24,7*74
$GAGSV,3,2,11,11,11,201,35,12,58,168,41,24,52,320,48,25,04,301,37,7*7A
$GAGSV,3,3,11,26,07,036,26,31,63,082,43,33,52,061,46,7*49
$GAGSV,3,1,11,01,15,110,31,03,02,318,30,05,10,271,41,09,03,224,22,2*70
$GAGSV,3,2,11,11,11,201,39,12,58,168,42,24,52,320,48,25,04,301,36,2*71
$GAGSV,3,3,11,26,07,036,32,31,63,082,44,33,52,061,44,2*4C
$GBGSV,3,1,09,04,00,262,,06,07,326,37,16,06,328,33,23,08,133,38,1*76
$GBGSV,3,2,09,27,77,203,47,28,45,047,47,30,23,222,44,36,11,313,32,1*77
$GBGSV,3,3,09,37,59,132,45,1*46
$GNGLL,3725.58364,N,12205.61913,W,021432.00,A,D*61
$GNRMC,021433.00,A,3725.58364,N,12205.61913,W,0.014,65.17,070220,13.06,E,F,V*47
$GNVTG,65.17,T,52.11,M,0.014,N,0.026,K,D*3B
$GNGGA,021433.00,3725.58364,N,12205.61913,W,5,12,0.76,4.4,M,-30.0,M,0.0,2000*54
$GNGSA,A,3,17,02,06,28,12,13,15,24,19,,,,1.48,0.76,1.27,1*0A
$GNGSA,A,3,80,83,73,84,82,,,,,,,,1.48,0.76,1.27,2*0B
$GNGSA,A,3,31,24,12,01,11,33,,,,,,,1.48,0.76,1.27,3*0D
$GNGSA,A,3,37,30,27,28,36,,,,,,,,1.48,0.76,1.27,4*01
$GPGSV,3,1,10,02,25,181,41,06,45,146,45,12,19,292,48,13,17,209,43,1*6C
$GPGSV,3,2,10,15,16,241,47,17,52,040,46,19,76,022,40,24,43,305,46,1*6C
$GPGSV,3,3,10,28,33,080,42,30,08,146,37,1*6D
$GPGSV,3,1,10,02,25,181,,06,45,146,45,12,19,292,39,13,17,209,,6*6F
$GPGSV,3,2,10,15,16,241,37,17,52,040,42,19,76,022,,24,43,305,48,6*62
$GPGSV,3,3,10,28,33,080,,30,08,146,34,6*6F
$GLGSV,3,1,09,65,01,330,34,72,01,292,18,73,64,352,50,74,25,323,47,1*70
$GLGSV,3,2,09,80,39,117,44,82,22,031,43,83,72,044,32,84,43,202,46,1*7C
$GLGSV,3,3,09,,,,52,1*76
$GLGSV,3,1,09,65,01,330,17,72,01,292,,73,64,352,47,74,25,323,,3*7F
$GLGSV,3,2,09,80,39,117,30,82,22,031,29,83,72,044,42,84,43,202,43,3*73
$GLGSV,3,3,09,,,,52,3*74
$GAGSV,3,1,11,01,15,110,33,03,02,318,28,05,10,271,42,09,03,224,24,7*7B
$GAGSV,3,2,11,11,11,201,35,12,58,168,41,24,52,320,48,25,04,301,37,7*7A
$GAGSV,3,3,11,26,07,036,26,31,63,082,43,33,52,061,46,7*49
$GAGSV,3,1,11,01,15,110,33,03,02,318,31,05,10,271,42,09,03,224,23,2*71
$GAGSV,3,2,11,11,11,201,40,12,58,168,43,24,52,320,49,25,04,301,38,2*71
$GAGSV,3,3,11,26,07,036,33,31,63,082,46,33,52,061,45,2*4E
$GBGSV,3,1,09,04,00,262,,06,07,326,37,16,06,328,33,23,08,133,38,1*76
$GBGSV,3,2,09,27,77,203,47,28,45,047,47,30,23,222,44,36,11,313,32,1*77
$GBGSV,3,3,09,37,59,132,45,1*46
$GNGLL,3725.58364,N,12205.61913,W,021433.00,A,D*60
$GNRMC,021434.00,A,3725.58364,N,12205.61912,W,0.020,65.17,070220,13.06,E,F,V*46
$GNVTG,65.17,T,52.12,M,0.020,N,0.036,K,D*3E
$GNGGA,021434.00,3725.58364,N,12205.61912,W,5,12,0.76,4.4,M,-30.0,M,0.0,2000*52
$GNGSA,A,3,17,02,06,28,12,13,15,24,19,,,,1.48,0.76,1.27,1*0A
$GNGSA,A,3,80,83,73,84,82,,,,,,,,1.48,0.76,1.27,2*0B
$GNGSA,A,3,31,24,12,01,11,33,,,,,,,1.48,0.76,1.27,3*0D
$GNGSA,A,3,37,30,27,28,36,,,,,,,,1.48,0.76,1.27,4*01
$GPGSV,3,1,10,02,25,181,41,06,45,146,46,12,19,292,47,13,17,209,43,1*60
$GPGSV,3,2,10,15,16,241,47,17,52,040,46,19,76,022,40,24,43,305,46,1*6C
$GPGSV,3,3,10,28,33,080,42,30,08,146,37,1*6D
$GPGSV,3,1,10,02,25,181,,06,45,146,45,12,19,292,39,13,17,209,,6*6F
$GPGSV,3,2,10,15,16,241,37,17,52,040,42,19,76,022,,24,43,305,48,6*62
$GPGSV,3,3,10,28,33,080,,30,08,146,34,6*6F
$GLGSV,3,1,09,65,01,330,34,72,01,292,18,73,64,352,51,74,25,323,47,1*71
$GLGSV,3,2,09,80,39,117,43,82,22,031,43,83,72,044,32,84,43,202,46,1*7B
$GLGSV,3,3,09,,,,52,1*76
$GLGSV,3,1,09,65,01,330,16,72,01,292,,73,64,352,47,74,25,323,,3*7E
$GLGSV,3,2,09,80,39,117,30,82,22,031,29,83,72,044,41,84,43,202,44,3*77
$GLGSV,3,3,09,,,,52,3*74
$GAGSV,3,1,11,01,15,110,33,03,02,318,27,05,10,271,42,09,03,224,24,7*74
$GAGSV,3,2,11,11,11,201,35,12,58,168,41,24,52,320,48,25,04,301,38,7*75
$GAGSV,3,3,11,26,07,036,26,31,63,082,43,33,52,061,46,7*49
$GAGSV,3,1,11,01,15,110,32,03,02,318,31,05,10,271,42,09,03,224,22,2*71
$GAGSV,3,2,11,11,11,201,40,12,58,168,43,24,52,320,48,25,04,301,37,2*7F
$GAGSV,3,3,11,26,07,036,32,31,63,082,45,33,52,061,45,2*4C
$GBGSV,3,1,09,04,00,262,,06,07,326,37,16,06,328,33,23,08,133,38,1*76
$GBGSV,3,2,09,27,77,203,47,28,45,047,47,30,23,222,44,36,11,313,32,1*77
$GBGSV,3,3,09,37,59,132,45,1*46
$GNGLL,3725.58364,N,12205.61912,W,021434.00,A,D*66
$GNRMC,021435.00,A,3725.58364,N,12205.61912,W,0.020,65.18,070220,13.06,E,F,V*48
$GNVTG,65.18,T,52.12,M,0.020,N,0.038,K,D*3F
$GNGGA,021435.00,3725.58364,N,12205.61912,W,5,12,0.76,4.4,M,-30.0,M,0.0,2000*53
$GNGSA,A,3,17,02,06,28,12,13,15,24,19,,,,1.48,0.76,1.27,1*0A
$GNGSA,A,3,80,83,73,84,82,,,,,,,,1.48,0.76,1.27,2*0B
$GNGSA,A,3,31,24,12,01,11,33,,,,,,,1.48,0.76,1.27,3*0D
$GNGSA,A,3,37,30,27,28,36,,,,,,,,1.48,0.76,1.27,4*01
$GPGSV,3,1,10,02,25,181,42,06,45,146,45,12,19,292,47,13,17,209,43,1*60
$GPGSV,3,2,10,15,16,241,47,17,52,040,46,19,76,022,39,24,43,305,46,1*62
$GPGSV,3,3,10,28,33,080,42,30,08,146,37,1*6D
$GPGSV,3,1,10,02,25,181,,06,45,146,45,12,19,292,39,13,17,209,,6*6F
$GPGSV,3,2,10,15,16,241,37,17,52,040,42,19,76,022,,24,43,305,48,6*62
$GPGSV,3,3,10,28,33,080,,30,08,146,34,6*6F
$GLGSV,3,1,09,65,01,330,34,72,01,291,17,73,64,352,51,74,25,323,47,1*7D
$GLGSV,3,2,09,80,39,117,43,82,22,031,43,83,72,044,32,84,43,202,46,1*7B
$GLGSV,3,3,09,,,,52,1*76
$GLGSV,3,1,09,65,01,330,17,72,01,291,,73,64,352,47,74,25,323,,3*7C
$GLGSV,3,2,09,80,39,117,30,82,22,031,29,83,72,044,41,84,43,202,44,3*77
$GLGSV,3,3,09,,,,52,3*74
$GAGSV,3,1,11,01,15,110,33,03,02,318,28,05,10,271,42,09,03,224,25,7*7A
$GAGSV,3,2,11,11,11,201,35,12,58,168,41,24,52,320,48,25,04,301,38,7*75
$GAGSV,3,3,11,26,07,036,26,31,63,082,43,33,52,061,46,7*49
$GAGSV,3,1,11,01,15,110,33,03,02,318,32,05,10,271,42,09,03,224,23,2*72
$GAGSV,3,2,11,11,11,201,40,12,58,168,43,24,52,320,50,25,04,301,38,2*79
$GAGSV,3,3,11,26,07,036,33,31,63,082,46,33,52,061,45,2*4E
$GBGSV,3,1,09,04,00,262,,06,07,326,37,16,06,328,33,23,08,133,38,1*76
$GBGSV,3,2,09,27,77,203,47,28,45,047,47,30,23,222,44,36,11,313,32,1*77
$GBGSV,3,3,09,37,59,132,45,1*46
$GNGLL,3725.58364,N,12205.61912,W,021435.00,A,D*67
$GNRMC,021436.00,A,3725.58364,N,12205.61912,W,0.016,65.17,070220,13.06,E,F,V*41
$GNVTG,65.17,T,52.11,M,0.016,N,0.030,K,D*3E
$GNGGA,021436.00,3725.58364,N,12205.61912,W,5,12,0.76,4.4,M,-30.0,M,0.0,2000*50
$GNGSA,A,3,17,02,06,28,12,13,15,24,19,,,,1.48,0.76,1.27,1*0A
$GNGSA,A,3,80,83,73,84,82,,,,,,,,1.48,0.76,1.27,2*0B
$GNGSA,A,3,31,24,12,01,11,33,,,,,,,1.48,0.76,1.27,3*0D
$GNGSA,A,3,37,30,27,28,36,,,,,,,,1.48,0.76,1.27,4*01
$GPGSV,3,1,10,02,25,181,42,06,45,146,45,12,19,292,47,13,17,209,43,1*60
$GPGSV,3,2,10,15,16,241,47,17,52,040,46,19,76,022,39,24,43,305,45,1*61
$GPGSV,3,3,10,28,33,080,41,30,08,146,37,1*6E
$GPGSV,3,1,10,02,25,181,,06,45,146,45,12,19,292,39,13,17,209,,6*6F
$GPGSV,3,2,10,15,16,241,37,17,52,040,42,19,76,022,,24,43,305,48,6*62
$GPGSV,3,3,10,28,33,080,,30,08,146,34,6*6F
$GLGSV,3,1,09,65,01,330,34,72,01,291,15,73,65,353,51,74,25,323,47,1*7F
$GLGSV,3,2,09,80,39,117,43,82,22,031,43,83,72,044,32,84,43,202,46,1*7B
$GLGSV,3,3,09,,,,52,1*76
$GLGSV,3,1,09,65,01,330,16,72,01,291,,73,65,353,47,74,25,323,,3*7D
$GLGSV,3,2,09,80,39,117,30,82,22,031,30,83,72,044,41,84,43,202,43,3*78
$GLGSV,3,3,09,,,,52,3*74
$GAGSV,3,1,11,01,15,110,33,03,02,318,28,05,10,271,42,09,03,224,24,7*7B
$GAGSV,3,2,11,11,11,201,35,12,58,168,41,24,52,320,48,25,04,301,38,7*75
$GAGSV,3,3,11,26,07,036,26,31,63,082,43,33,52,061,46,7*49
$GAGSV,3,1,11,01,15,110,33,03,02,318,31,05,10,271,42,09,03,224,22,2*70
$GAGSV,3,2,11,11,11,201,40,12,58,168,43,24,52,320,49,25,04,301,37,2*7E
$GAGSV,3,3,11,26,07,036,33,31,63,082,45,33,52,061,45,2*4D
$GBGSV,3,1,09,04,00,262,,06,07,326,37,16,06,328,33,23,08,133,38,1*76
$GBGSV,3,2,09,27,77,203,47,28,45,047,47,30,23,222,44,36,11,313,32,1*77
$GBGSV,3,3,09,37,59,132,45,1*46
$GNGLL,3725.58364,N,12205.61912,W,021436.00,A,D*64
$GNRMC,021437.00,A,3725.58364,N,12205.61912,W,0.013,65.17,070220,13.06,E,F,V*45
$GNVTG,65.17,T,52.11,M,0.013,N,0.025,K,D*3F
$GNGGA,021437.00,3725.58364,N,12205.61912,W,5,12,0.76,4.4,M,-30.0,M,0.0,2000*51
$GNGSA,A,3,17,02,06,28,12,13,15,24,19,,,,1.48,0.76,1.27,1*0A
$GNGSA,A,3,80,83,73,84,82,,,,,,,,1.48,0.76,1.27,2*0B
$GNGSA,A,3,31,24,12,01,11,33,,,,,,,1.48,0.76,1.27,3*0D
$GNGSA,A,3,37,30,27,28,36,,,,,,,,1.48,0.76,1.27,4*01
$GPGSV,3,1,10,02,25,181,42,06,45,146,45,12,19,292,47,13,17,209,43,1*60
$GPGSV,3,2,10,15,16,241,48,17,52,040,46,19,76,022,39,24,43,305,45,1*6E
$GPGSV,3,3,10,28,33,080,41,30,08,146,37,1*6E
$GPGSV,3,1,10,02,25,181,,06,45,146,45,12,19,292,39,13,17,209,,6*6F
$GPGSV,3,2,10,15,16,241,37,17,52,040,42,19,76,022,,24,43,305,48,6*62
$GPGSV,3,3,10,28,33,080,,30,08,146,34,6*6F
$GLGSV,3,1,09,65,01,330,33,72,01,291,13,73,65,353,51,74,26,324,47,1*7A
$GLGSV,3,2,09,80,39,117,43,82,22,031,43,83,72,044,31,84,43,202,46,1*78
$GLGSV,3,3,09,,,,52,1*76
$GLGSV,3,1,09,65,01,330,17,72,01,291,,73,65,353,48,74,26,324,,3*77
$GLGSV,3,2,09,80,39,117,30,82,22,031,30,83,72,044,41,84,43,202,43,3*78
$GLGSV,3,3,09,,,,52,3*74
$GAGSV,3,1,11,01,15,110,33,03,02,318,27,05,10,271,42,09,03,224,24,7*74
$GAGSV,3,2,11,11,11,201,35,12,58,168,41,24,52,320,48,25,04,301,38,7*75
$GAGSV,3,3,11,26,07,036,26,31,63,082,43,33,52,061,46,7*49
$GAGSV,3,1,11,01,15,110,32,03,02,318,31,05,10,271,41,09,03,224,22,2*72
$GAGSV,3,2,11,11,11,201,39,12,58,168,42,24,52,320,49,25,04,301,37,2*71
$GAGSV,3,3,11,26,07,036,32,31,63,082,45,33,52,061,44,2*4D
$GBGSV,3,1,09,04,00,262,,06,07,326,37,16,06,328,33,23,08,133,37,1*79
$GBGSV,3,2,09,27,77,203,47,28,45,047,47,30,23,222,44,36,11,313,32,1*77
$GBGSV,3,3,09,37,59,132,45,1*46
$GNGLL,3725.58364,N,12205.61912,W,021437.00,A,D*65
$GNRMC,021438.00,A,3725.58365,N,12205.61912,W,0.010,65.18,070220,13.06,E,F,V*47
$GNVTG,65.18,T,52.12,M,0.010,N,0.019,K,D*3F
$GNGGA,021438.00,3725.58365,N,12205.61912,W,5,12,0.76,4.4,M,-30.0,M,0.0,2000*5F
$GNGSA,A,3,17,02,06,28,12,13,15,24,19,,,,1.48,0.76,1.27,1*0A
$GNGSA,A,3,80,83,73,84,82,,,,,,,,1.48,0.76,1.27,2*0B
$GNGSA,A,3,31,24,12,01,11,33,,,,,,,1.48,0.76,1.27,3*0D
$GNGSA,A,3,37,30,27,28,36,,,,,,,,1.48,0.76,1.27,4*01
$GPGSV,3,1,10,02,25,181,42,06,45,146,45,12,19,292,47,13,17,209,43,1*60
$GPGSV,3,2,10,15,16,241,48,17,52,040,46,19,76,022,39,24,43,305,45,1*6E
$GPGSV,3,3,10,28,33,080,41,30,08,146,37,1*6E
$GPGSV,3,1,10,02,25,181,,06,45,146,45,12,19,292,39,13,17,209,,6*6F
$GPGSV,3,2,10,15,16,241,37,17,52,040,42,19,76,022,,24,43,305,48,6*62
$GPGSV,3,3,10,28,33,080,,30,08,146,34,6*6F
$GLGSV,3,1,09,65,01,330,32,72,01,291,10,73,65,353,51,74,26,324,47,1*78
$GLGSV,3,2,09,80,39,117,43,82,22,031,43,83,72,044,31,84,43,202,46,1*78
$GLGSV,3,3,09,,,,52,1*76
$GLGSV,3,1,09,65,01,330,18,72,01,291,,73,65,353,48,74,26,324,,3*78
$GLGSV,3,2,09,80,39,117,31,82,22,031,30,83,72,044,41,84,43,202,43,3*79
$GLGSV,3,3,09,,,,52,3*74
$GAGSV,3,1,11,01,15,110,33,03,02,318,27,05,10,271,42,09,03,224,24,7*74
$GAGSV,3,2,11,11,11,201,35,12,58,168,41,24,52,320,48,25,04,301,38,7*75
$GAGSV,3,3,11,26,07,036,26,31,63,082,43,33,52,061,46,7*49
$GAGSV,3,1,11,01,15,110,33,03,02,318,32,05,10,271,42,09,03,224,23,2*72
$GAGSV,3,2,11,11,11,201,40,12,58,168,43,24,52,320,49,25,04,301,37,2*7E
$GAGSV,3,3,11,26,07,036,33,31,63,082,45,33,52,061,45,2*4D
$GBGSV,3,1,09,04,00,262,,06,07,326,37,16,06,328,33,23,08,133,37,1*79
$GBGSV,3,2,09,27,77,203,47,28,45,047,47,30,23,222,44,36,11,313,32,1*77
$GBGSV,3,3,09,37,59,132,45,1*46
$GNGLL,3725.58365,N,12205.61912,W,021438.00,A,D*6B
$GNRMC,021439.00,A,3725.58364,N,12205.61912,W,0.018,65.19,070220,13.06,E,F,V*4E
$GNVTG,65.19,T,52.13,M,0.018,N,0.033,K,D*3F
$GNGGA,021439.00,3725.58364,N,12205.61912,W,5,12,0.76,4.4,M,-30.0,M,0.0,2000*5F
$GNGSA,A,3,17,02,06,28,12,13,15,24,19,,,,1.48,0.76,1.27,1*0A
$GNGSA,A,3,80,83,73,84,82,,,,,,,,1.48,0.76,1.27,2*0B
$GNGSA,A,3,31,24,12,01,11,33,,,,,,,1.48,0.76,1.27,3*0D
$GNGSA,A,3,37,30,27,28,36,,,,,,,,1.48,0.76,1.27,4*01
$GPGSV,3,1,10,02,25,181,42,06,45,146,45,12,19,292,47,13,17,209,43,1*60
$GPGSV,3,2,10,15,16,241,48,17,52,040,46,19,76,022,39,24,43,305,45,1*6E
$GPGSV,3,3,10,28,33,080,41,30,08,146,37,1*6E
$GPGSV,3,1,10,02,25,181,,06,45,146,45,12,19,292,39,13,17,209,,6*6F
$GPGSV,3,2,10,15,16,241,37,17,52,040,42,19,76,022,,24,43,305,48,6*62
$GPGSV,3,3,10,28,33,080,,30,08,146,34,6*6F
$GLGSV,2,1,08,65,01,330,32,72,01,291,10,73,65,353,51,74,26,324,47,1*78
$GLGSV,2,2,08,80,39,117,43,82,22,031,43,83,72,044,31,84,43,202,46,1*78
$GLGSV,2,1,08,65,01,330,18,72,01,291,,73,65,353,48,74,26,324,,3*78
$GLGSV,2,2,08,80,39,117,31,82,22,031,30,83,72,044,41,84,43,202,43,3*79
$GAGSV,3,1,11,01,15,110,33,03,02,318,27,05,10,271,43,09,03,224,24,7*75
$GAGSV,3,2,11,11,11,201,35,12,58,168,41,24,52,320,48,25,04,301,38,7*75
$GAGSV,3,3,11,26,07,036,26,31,63,082,43,33,52,061,46,7*49
$GAGSV,3,1,11,01,15,110,32,03,02,318,31,05,10,271,41,09,03,224,23,2*73
$GAGSV,3,2,11,11,11,201,39,12,58,168,42,24,52,320,48,25,04,301,36,2*71
$GAGSV,3,3,11,26,07,036,32,31,63,082,44,33,52,061,44,2*4C
$GBGSV,3,1,09,04,00,262,,06,07,326,37,16,06,328,33,23,08,133,37,1*79
$GBGSV,3,2,09,27,77,203,47,28,45,047,47,30,23,222,44,36,11,313,32,1*77
$GBGSV,3,3,09,37,59,132,45,1*46
$GNGLL,3725.58364,N,12205.61912,W,021439.00,A,D*6B
$GNRMC,021440.00,A,3725.58364,N,12205.61912,W,0.020,65.19,070220,13.06,E,F,V*4B
$GNVTG,65.19,T,52.13,M,0.020,N,0.037,K,D*30
$GNGGA,021440.00,3725.58364,N,12205.61912,W,5,12,0.76,4.4,M,-30.0,M,0.0,2000*51
$GNGSA,A,3,17,02,06,28,12,13,15,24,19,,,,1.48,0.76,1.27,1*0A
$GNGSA,A,3,80,83,73,84,82,,,,,,,,1.48,0.76,1.27,2*0B
$GNGSA,A,3,31,24,12,01,11,33,,,,,,,1.48,0.76,1.27,3*0D
$GNGSA,A,3,37,30,27,28,36,,,,,,,,1.48,0.76,1.27,4*01
$GPGSV,3,1,10,02,25,181,42,06,45,146,45,12,19,292,47,13,17,209,43,1*60
$GPGSV,3,2,10,15,16,241,48,17,52,040,46,19,76,022,39,24,43,305,45,1*6E
$GPGSV,3,3,10,28,33,080,41,30,08,146,37,1*6E
$GPGSV,3,1,10,02,25,181,,06,45,146,45,12,19,292,39,13,17,209,,6*6F
$GPGSV,3,2,10,15,16,241,37,17,52,040,42,19,76,022,,24,43,305,48,6*62
$GPGSV,3,3,10,28,33,080,,30,08,146,34,6*6F
$GLGSV,3,1,09,65,01,330,31,72,01,291,15,73,65,353,50,74,26,324,47,1*7F
$GLGSV,3,2,09,80,39,117,43,82,22,031,42,83,72,044,31,84,43,202,46,1*79
$GLGSV,3,3,09,,,,52,1*76
$GLGSV,3,1,09,65,01,330,19,72,01,291,,73,65,353,48,74,26,324,,3*79
$GLGSV,3,2,09,80,39,117,31,82,22,031,30,83,72,044,41,84,43,202,43,3*79
$GLGSV,3,3,09,,,,52,3*74
$GAGSV,3,1,11,01,15,110,33,03,02,318,27,05,10,271,43,09,03,224,23,7*72
$GAGSV,3,2,11,11,11,201,35,12,58,168,41,24,52,320,48,25,04,301,37,7*7A
$GAGSV,3,3,11,26,07,036,26,31,63,082,43,33,52,061,46,7*49
$GAGSV,3,1,11,01,15,110,33,03,02,318,33,05,10,271,42,09,03,224,24,2*74
$GAGSV,3,2,11,11,11,201,40,12,58,168,43,24,52,320,50,25,04,301,38,2*79
$GAGSV,3,3,11,26,07,036,33,31,63,082,46,33,52,061,45,2*4E
$GBGSV,3,1,09,04,00,262,,06,07,326,37,16,06,328,33,23,08,133,37,1*79
$GBGSV,3,2,09,27,77,203,47,28,45,047,47,30,23,222,44,36,11,313,32,1*77
$GBGSV,3,3,09,37,59,132,45,1*46
$GNGLL,3725.58364,N,12205.61912,W,021440.00,A,D*65
$GNRMC,021441.00,A,3725.58364,N,12205.61912,W,0.018,65.20,070220,13.06,E,F,V*4B
$GNVTG,65.20,T,52.14,M,0.018,N,0.034,K,D*35
$GNGGA,021441.00,3725.58364,N,12205.61912,W,5,12,0.76,4.4,M,-30.0,M,0.0,2000*50
$GNGSA,A,3,17,02,06,28,12,13,15,24,19,,,,1.48,0.76,1.27,1*0A
$GNGSA,A,3,80,83,73,84,82,,,,,,,,1.48,0.76,1.27,2*0B
$GNGSA,A,3,31,24,12,01,11,33,,,,,,,1.48,0.76,1.27,3*0D
$GNGSA,A,3,37,30,27,28,36,,,,,,,,1.48,0.76,1.27,4*01
$GPGSV,3,1,10,02,25,181,42,06,45,146,45,12,19,292,47,13,17,209,43,1*60
$GPGSV,3,2,10,15,16,241,48,17,52,040,46,19,76,022,39,24,43,305,45,1*6E
$GPGSV,3,3,10,28,33,080,41,30,08,146,37,1*6E
$GPGSV,3,1,10,02,25,181,,06,45,146,45,12,19,292,39,13,17,209,,6*6F
$GPGSV,3,2,10,15,16,241,37,17,52,040,42,19,76,022,,24,43,305,48,6*62
$GPGSV,3,3,10,28,33,080,,30,08,146,34,6*6F
$GLGSV,3,1,09,65,01,330,31,72,01,291,18,73,65,353,50,74,26,324,47,1*72
$GLGSV,3,2,09,80,39,117,43,82,22,031,42,83,72,044,31,84,43,202,46,1*79
$GLGSV,3,3,09,,,,52,1*76
$GLGSV,3,1,09,65,01,330,18,72,01,291,,73,65,353,47,74,26,324,,3*77
$GLGSV,3,2,09,80,39,117,31,82,22,031,30,83,72,044,41,84,43,202,44,3*7E
$GLGSV,3,3,09,,,,52,3*74
$GAGSV,3,1,11,01,15,110,33,03,02,318,26,05,10,271,42,09,03,224,22,7*73
$GAGSV,3,2,11,11,11,201,35,12,58,168,41,24,52,320,48,25,04,301,37,7*7A
$GAGSV,3,3,11,26,07,036,26,31,63,082,43,33,52,061,46,7*49
$GAGSV,3,1,11,01,15,110,33,03,02,318,32,05,10,271,42,09,03,224,24,2*75
$GAGSV,3,2,11,11,11,201,40,12,58,168,43,24,52,320,49,25,04,301,37,2*7E
$GAGSV,3,3,11,26,07,036,32,31,63,082,45,33,52,061,45,2*4C
$GBGSV,3,1,09,04,00,262,,06,07,326,37,16,06,328,33,23,08,133,37,1*79
$GBGSV,3,2,09,27,77,203,47,28,45,047,47,30,23,222,44,36,11,313,32,1*77
$GBGSV,3,3,09,37,59,132,45,1*46
$GNGLL,3725.58364,N,12205.61912,W,021441.00,A,D*64
$GNRMC,021442.00,A,3725.58364,N,12205.61912,W,0.021,65.20,070220,13.06,E,F,V*42
$GNVTG,65.20,T,52.15,M,0.021,N,0.039,K,D*33
$GNGGA,021442.00,3725.58364,N,12205.61912,W,5,12,0.76,4.4,M,-30.0,M,1.0,2000*52
$GNGSA,A,3,17,02,06,28,12,13,15,24,19,,,,1.48,0.76,1.27,1*0A
$GNGSA,A,3,80,83,73,84,82,,,,,,,,1.48,0.76,1.27,2*0B
$GNGSA,A,3,31,24,12,01,11,33,,,,,,,1.48,0.76,1.27,3*0D
$GNGSA,A,3,37,30,27,28,36,,,,,,,,1.48,0.76,1.27,4*01
$GPGSV,3,1,10,02,25,181,41,06,45,146,45,12,19,292,47,13,17,209,43,1*63
$GPGSV,3,2,10,15,16,241,48,17,52,040,46,19,76,022,39,24,43,305,45,1*6E
$GPGSV,3,3,10,28,33,080,41,30,08,146,37,1*6E
$GPGSV,3,1,10,02,25,181,,06,45,146,45,12,19,292,39,13,17,209,,6*6F
$GPGSV,3,2,10,15,16,241,37,17,52,040,42,19,76,022,,24,43,305,48,6*62
$GPGSV,3,3,10,28,33,080,,30,08,146,34,6*6F
$GLGSV,3,1,09,65,01,330,31,72,01,291,21,73,65,353,50,74,26,324,47,1*78
$GLGSV,3,2,09,80,39,117,43,82,22,031,42,83,72,044,30,84,43,202,46,1*78
$GLGSV,3,3,09,,,,52,1*76
$GLGSV,3,1,09,65,01,330,19,72,01,291,,73,65,353,47,74,26,324,,3*76
$GLGSV,3,2,09,80,39,117,31,82,22,031,31,83,72,044,41,84,43,202,44,3*7F
$GLGSV,3,3,09,,,,52,3*74
$GAGSV,3,1,11,01,15,110,33,03,02,318,25,05,10,271,42,09,03,224,22,7*70
$GAGSV,3,2,11,11,11,201,35,12,58,168,41,24,52,320,49,25,04,301,37,7*7B
$GAGSV,3,3,11,26,07,036,26,31,63,082,43,33,52,061,46,7*49
$GAGSV,3,1,11,01,15,110,33,03,02,318,32,05,10,271,42,09,03,224,25,2*74
$GAGSV,3,2,11,11,11,201,41,12,58,168,43,24,52,320,50,25,04,301,38,2*78
$GAGSV,3,3,11,26,07,036,33,31,63,082,46,33,52,061,45,2*4E
$GBGSV,3,1,09,04,00,262,,06,07,326,36,16,06,328,32,23,08,133,37,1*79
$GBGSV,3,2,09,27,77,203,47,28,45,047,47,30,23,222,44,36,11,313,32,1*77
$GBGSV,3,3,09,37,59,132,45,1*46
$GNGLL,3725.58364,N,12205.61912,W,021442.00,A,D*67
$GNRMC,021443.00,A,3725.58365,N,12205.61912,W,0.016,65.20,070220,13.06,E,F,V*46
$GNVTG,65.20,T,52.15,M,0.016,N,0.029,K,D*36
$GNGGA,021443.00,3725.58365,N,12205.61912,W,5,12,0.76,4.4,M,-30.0,M,0.0,2000*53
$GNGSA,A,3,17,02,06,28,12,13,15,24,19,,,,1.48,0.76,1.27,1*0A
$GNGSA,A,3,80,83,73,84,82,,,,,,,,1.48,0.76,1.27,2*0B
$GNGSA,A,3,31,24,12,01,11,33,,,,,,,1.48,0.76,1.27,3*0D
$GNGSA,A,3,37,30,27,28,36,,,,,,,,1.48,0.76,1.27,4*01
$GPGSV,3,1,10,02,25,181,41,06,45,146,45,12,19,292,47,13,17,209,43,1*63
$GPGSV,3,2,10,15,16,241,48,17,52,040,46,19,76,022,39,24,43,305,45,1*6E
$GPGSV,3,3,10,28,33,080,41,30,08,146,37,1*6E
$GPGSV,3,1,10,02,25,181,,06,45,146,45,12,19,292,39,13,17,209,,6*6F
$GPGSV,3,2,10,15,16,241,37,17,52,040,42,19,76,022,,24,43,305,48,6*62
$GPGSV,3,3,10,28,33,080,,30,08,146,33,6*68
$GLGSV,3,1,09,65,01,330,30,72,01,291,22,73,65,353,50,74,26,324,47,1*7A
$GLGSV,3,2,09,80,39,118,43,82,22,031,42,83,72,044,30,84,43,202,46,1*77
$GLGSV,3,3,09,,,,52,1*76
$GLGSV,3,1,09,65,01,330,19,72,01,291,,73,65,353,47,74,26,324,,3*76
$GLGSV,3,2,09,80,39,118,31,82,22,031,31,83,72,044,41,84,43,202,44,3*70
$GLGSV,3,3,09,,,,52,3*74
$GAGSV,3,1,11,01,15,110,33,03,02,318,24,05,10,271,42,09,03,224,21,7*72
$GAGSV,3,2,11,11,11,201,35,12,58,168,41,24,52,320,49,25,04,301,37,7*7B
$GAGSV,3,3,11,26,07,036,26,31,63,082,43,33,52,061,46,7*49
$GAGSV,3,1,11,01,15,110,33,03,02,318,33,05,10,271,42,09,03,224,25,2*75
$GAGSV,3,2,11,11,11,201,41,12,58,168,44,24,52,320,50,25,04,301,38,2*7F
$GAGSV,3,3,11,26,07,036,34,31,63,082,46,33,52,061,45,2*49
$GBGSV,3,1,09,04,00,262,,06,07,326,37,16,06,328,33,23,08,133,37,1*79
$GBGSV,3,2,09,27,77,203,47,28,45,047,47,30,23,222,44,36,11,313,32,1*77
$GBGSV,3,3,09,37,59,132,45,1*46
$GNGLL,3725.58365,N,12205.61912,W,021443.00,A,D*67
$GNRMC,021444.00,A,3725.58365,N,12205.61912,W,0.012,65.20,070220,13.06,E,F,V*45
$GNVTG,65.20,T,52.14,M,0.012,N,0.022,K,D*38
$GNGGA,021444.00,3725.58365,N,12205.61912,W,5,12,0.76,4.4,M,-30.0,M,0.0,2000*54
$GNGSA,A,3,17,02,06,28,12,13,15,24,19,,,,1.48,0.76,1.27,1*0A
$GNGSA,A,3,80,83,73,84,82,,,,,,,,1.48,0.76,1.27,2*0B
$GNGSA,A,3,31,24,12,01,11,33,,,,,,,1.48,0.76,1.27,3*0D
$GNGSA,A,3,37,30,27,28,36,,,,,,,,1.48,0.76,1.27,4*01
$GPGSV,3,1,10,02,25,181,42,06,45,146,45,12,19,292,47,13,17,209,43,1*60
$GPGSV,3,2,10,15,16,241,48,17,52,040,47,19,76,022,39,24,43,305,46,1*6C
$GPGSV,3,3,10,28,33,080,41,30,08,146,37,1*6E
$GPGSV,3,1,10,02,25,181,,06,45,146,45,12,19,292,39,13,17,209,,6*6F
$GPGSV,3,2,10,15,16,241,37,17,52,040,42,19,76,022,,24,43,305,48,6*62
$GPGSV,3,3,10,28,33,080,,30,08,146,33,6*68
$GLGSV,3,1,09,65,01,330,30,72,01,291,22,73,65,353,50,74,26,324,47,1*7A
$GLGSV,3,2,09,80,39,118,43,82,22,031,42,83,72,044,30,84,43,202,46,1*77
$GLGSV,3,3,09,,,,52,1*76
$GLGSV,3,1,09,65,01,330,19,72,01,291,,73,65,353,47,74,26,324,,3*76
$GLGSV,3,2,09,80,39,118,31,82,22,031,31,83,72,044,41,84,43,202,44,3*70
$GLGSV,3,3,09,,,,52,3*74
$GAGSV,3,1,11,01,15,110,33,03,02,318,24,05,10,271,42,09,03,224,20,7*73
$GAGSV,3,2,11,11,11,201,35,12,58,168,41,24,52,320,49,25,04,301,37,7*7B
$GAGSV,3,3,11,26,07,036,26,31,63,082,43,33,52,061,46,7*49
$GAGSV,3,1,11,01,15,110,32,03,02,318,31,05,10,271,41,09,03,224,23,2*73
$GAGSV,3,2,11,11,11,201,39,12,58,168,42,24,52,320,48,25,04,301,36,2*71
$GAGSV,3,3,11,26,07,036,32,31,63,082,44,33,52,061,44,2*4C
$GBGSV,3,1,09,04,00,262,,06,07,326,37,16,06,328,33,23,08,133,37,1*79
$GBGSV,3,2,09,27,77,203,47,28,45,047,47,30,23,222,44,36,11,313,32,1*77
$GBGSV,3,3,09,37,59,132,45,1*46
$GNGLL,3725.58365,N,12205.61912,W,021444.00,A,D*60
$GNRMC,021445.00,A,3725.58365,N,12205.61912,W,0.012,65.19,070220,13.06,E,F,V*4E
$GNVTG,65.19,T,52.13,M,0.012,N,0.022,K,D*35
$GNGGA,021445.00,3725.58365,N,12205.61912,W,5,12,0.76,4.4,M,-30.0,M,0.0,2000*55
$GNGSA,A,3,17,02,06,28,12,13,15,24,19,,,,1.48,0.76,1.27,1*0A
$GNGSA,A,3,80,83,73,84,82,,,,,,,,1.48,0.76,1.27,2*0B
$GNGSA,A,3,31,24,12,01,11,33,,,,,,,1.48,0.76,1.27,3*0D
$GNGSA,A,3,37,30,27,28,36,,,,,,,,1.48,0.76,1.27,4*01
$GPGSV,3,1,10,02,25,181,42,06,45,146,45,12,19,292,47,13,17,209,43,1*60
$GPGSV,3,2,10,15,16,241,48,17,52,040,47,19,76,022,39,24,43,305,46,1*6C
$GPGSV,3,3,10,28,33,080,41,30,08,146,37,1*6E
$GPGSV,3,1,10,02,25,181,,06,45,146,45,12,19,292,39,13,17,209,,6*6F
$GPGSV,3,2,10,15,16,241,37,17,52,040,42,19,76,022,,24,43,305,48,6*62
$GPGSV,3,3,10,28,33,080,,30,08,146,33,6*68
$GLGSV,3,1,09,65,01,330,29,72,01,291,21,73,65,353,50,74,26,324,47,1*71
$GLGSV,3,2,09,80,39,118,43,82,21,031,42,83,72,044,30,84,43,202,46,1*74
$GLGSV,3,3,09,,,,52,1*76
$GLGSV,3,1,09,65,01,330,19,72,01,291,,73,65,353,47,74,26,324,,3*76
$GLGSV,3,2,09,80,39,118,31,82,21,031,31,83,72,044,41,84,43,202,44,3*73
$GLGSV,3,3,09,,,,52,3*74
$GAGSV,3,1,11,01,15,110,33,03,02,318,23,05,10,271,42,09,03,224,20,7*74
$GAGSV,3,2,11,11,11,201,35,12,58,168,41,24,52,320,49,25,04,301,37,7*7B
$GAGSV,3,3,11,26,07,036,26,31,63,082,43,33,52,061,46,7*49
$GAGSV,3,1,11,01,15,110,34,03,02,318,32,05,10,271,42,09,03,224,25,2*73
$GAGSV,3,2,11,11,11,201,41,12,58,168,44,24,52,320,50,25,04,301,38,2*7F
$GAGSV,3,3,11,26,07,036,34,31,63,082,46,33,52,061,45,2*49
$GBGSV,3,1,09,04,00,262,,06,07,326,37,16,06,328,33,23,08,133,37,1*79
$GBGSV,3,2,09,27,77,203,47,28,45,047,47,30,23,222,44,36,11,313,32,1*77
$GBGSV,3,3,09,37,59,132,45,1*46
$GNGLL,3725.58365,N,12205.61912,W,021445.00,A,D*61
$GNRMC,021446.00,A,3725.58365,N,12205.61911,W,0.015,65.19,070220,13.06,E,F,V*49
$GNVTG,65.19,T,52.13,M,0.015,N,0.027,K,D*37
$GNGGA,021446.00,3725.58365,N,12205.61911,W,5,12,0.76,4.4,M,-30.0,M,0.0,2000*55
$GNGSA,A,3,17,02,06,28,12,13,15,24,19,,,,1.48,0.76,1.27,1*0A
$GNGSA,A,3,80,83,73,84,82,,,,,,,,1.48,0.76,1.27,2*0B
$GNGSA,A,3,31,24,12,01,11,33,,,,,,,1.48,0.76,1.27,3*0D
$GNGSA,A,3,37,30,27,28,36,,,,,,,,1.48,0.76,1.27,4*01
$GPGSV,3,1,10,02,25,181,42,06,45,146,45,12,19,292,47,13,17,209,43,1*60
$GPGSV,3,2,10,15,16,241,47,17,52,040,47,19,76,022,39,24,43,305,46,1*63
$GPGSV,3,3,10,28,33,080,41,30,08,146,37,1*6E
$GPGSV,3,1,10,02,25,181,,06,45,146,45,12,19,292,39,13,17,209,,6*6F
$GPGSV,3,2,10,15,16,241,37,17,52,040,42,19,76,022,,24,43,305,48,6*62
$GPGSV,3,3,10,28,33,080,,30,08,146,33,6*68
$GLGSV,3,1,09,65,01,330,30,72,01,291,19,73,65,353,50,74,26,324,47,1*72
$GLGSV,3,2,09,80,39,118,43,82,21,031,42,83,71,042,31,84,43,202,46,1*70
$GLGSV,3,3,09,,,,52,1*76
$GLGSV,3,1,09,65,01,330,19,72,01,291,,73,65,353,47,74,26,324,,3*76
$GLGSV,3,2,09,80,39,118,31,82,21,031,31,83,71,042,41,84,43,202,44,3*76
$GLGSV,3,3,09,,,,52,3*74
$GAGSV,3,1,11,01,15,110,32,03,02,318,22,05,10,271,42,09,03,224,19,7*7E
$GAGSV,3,2,11,11,11,201,35,12,58,168,41,24,52,320,49,25,04,301,37,7*7B
$GAGSV,3,3,11,26,07,036,26,31,63,082,43,33,52,061,46,7*49
$GAGSV,3,1,11,01,15,110,33,03,02,318,31,05,10,271,41,09,03,224,24,2*75
$GAGSV,3,2,11,11,11,201,40,12,58,168,43,24,52,320,49,25,04,301,37,2*7E
$GAGSV,3,3,11,26,07,036,33,31,63,082,45,33,52,061,44,2*4C
$GBGSV,3,1,09,04,00,262,,06,07,326,36,16,06,328,33,23,08,133,37,1*78
$GBGSV,3,2,09,27,77,203,47,28,45,047,47,30,23,222,44,36,11,313,32,1*77
$GBGSV,3,3,09,37,59,132,45,1*46
$GNGLL,3725.58365,N,12205.61911,W,021446.00,A,D*61
$GNRMC,021447.00,A,3725.58365,N,12205.61911,W,0.019,65.18,070220,13.06,E,F,V*45
$GNVTG,65.18,T,52.13,M,0.019,N,0.035,K,D*39
$GNGGA,021447.00,3725.58365,N,12205.61911,W,5,12,0.76,4.4,M,-30.0,M,0.0,2000*54
$GNGSA,A,3,17,02,06,28,12,13,15,24,19,,,,1.48,0.76,1.27,1*0A
$GNGSA,A,3,80,83,73,84,82,,,,,,,,1.48,0.76,1.27,2*0B
$GNGSA,A,3,31,24,12,01,11,33,,,,,,,1.48,0.76,1.27,3*0D
$GNGSA,A,3,37,30,27,28,36,,,,,,,,1.48,0.76,1.27,4*01
$GPGSV,3,1,10,02,25,181,42,06,45,146,45,12,19,292,47,13,17,209,43,1*60
$GPGSV,3,2,10,15,16,241,48,17,52,040,47,19,76,022,39,24,43,305,46,1*6C
$GPGSV,3,3,10,28,33,080,41,30,08,146,37,1*6E
$GPGSV,3,1,10,02,25,181,,06,45,146,45,12,19,292,39,13,17,209,,6*6F
$GPGSV,3,2,10,15,16,241,37,17,52,040,42,19,76,022,,24,43,305,48,6*62
$GPGSV,3,3,10,28,33,080,,30,08,146,33,6*68
$GLGSV,3,1,09,65,01,330,30,72,01,291,18,73,65,353,50,74,26,324,47,1*73
$GLGSV,3,2,09,80,39,118,43,82,21,031,42,83,71,042,31,84,44,203,46,1*76
$GLGSV,3,3,09,,,,52,1*76
$GLGSV,3,1,09,65,01,330,19,72,01,291,,73,65,353,47,74,26,324,,3*76
$GLGSV,3,2,09,80,39,118,31,82,21,031,31,83,71,042,41,84,44,203,44,3*70
$GLGSV,3,3,09,,,,52,3*74
$GAGSV,3,1,11,01,15,110,33,03,02,318,21,05,10,271,42,09,03,224,18,7*7D
$GAGSV,3,2,11,11,11,201,35,12,58,168,41,24,52,320,49,25,04,301,37,7*7B
$GAGSV,3,3,11,26,07,036,26,31,63,082,42,33,52,061,46,7*48
$GAGSV,3,1,11,01,15,110,34,03,02,318,33,05,10,271,43,09,03,224,26,2*70
$GAGSV,3,2,11,11,11,201,41,12,58,168,44,24,52,320,50,25,04,301,38,2*7F
$GAGSV,3,3,11,26,07,036,34,31,63,082,46,33,52,061,46,2*4A
$GBGSV,3,1,09,04,00,262,,06,07,326,36,16,06,328,33,23,08,133,37,1*78
$GBGSV,3,2,09,27,77,203,47,28,45,047,47,30,23,222,44,36,11,313,32,1*77
$GBGSV,3,3,09,37,59,132,45,1*46
$GNGLL,3725.58365,N,12205.61911,W,021447.00,A,D*60
$GNRMC,021448.00,A,3725.58365,N,12205.61911,W,0.024,65.18,070220,13.06,E,F,V*44
$GNVTG,65.18,T,52.12,M,0.024,N,0.045,K,D*31
$GNGGA,021448.00,3725.58365,N,12205.61911,W,5,12,0.76,4.4,M,-30.0,M,0.0,2000*5B
$GNGSA,A,3,17,02,06,28,12,13,15,24,19,,,,1.48,0.76,1.27,1*0A
$GNGSA,A,3,80,83,73,84,82,,,,,,,,1.48,0.76,1.27,2*0B
$GNGSA,A,3,31,24,12,01,11,33,,,,,,,1.48,0.76,1.27,3*0D
$GNGSA,A,3,37,30,27,28,36,,,,,,,,1.48,0.76,1.27,4*01
$GPGSV,3,1,10,02,25,181,42,06,45,146,45,12,19,292,47,13,17,209,43,1*60
$GPGSV,3,2,10,15,16,241,47,17,52,040,47,19,76,022,39,24,43,305,46,1*63
$GPGSV,3,3,10,28,33,080,41,30,08,146,37,1*6E
$GPGSV,3,1,10,02,25,181,,06,45,146,45,12,19,292,39,13,17,209,,6*6F
$GPGSV,3,2,10,15,16,241,37,17,52,040,42,19,76,022,,24,43,305,48,6*62
$GPGSV,3,3,10,28,33,080,,30,08,146,33,6*68
$GLGSV,3,1,09,65,01,330,31,72,01,291,15,73,65,353,50,74,26,324,47,1*7F
$GLGSV,3,2,09,80,39,118,44,82,21,031,42,83,71,042,31,84,44,203,46,1*71
$GLGSV,3,3,09,,,,52,1*76
$GLGSV,3,1,09,65,01,330,19,72,01,291,,73,65,353,47,74,26,324,,3*76
$GLGSV,3,2,09,80,39,118,31,82,21,031,31,83,71,042,41,84,44,203,44,3*70
$GLGSV,3,3,09,,,,52,3*74
$GAGSV,3,1,11,01,15,110,33,03,02,318,21,05,10,271,42,09,03,224,17,7*72
$GAGSV,3,2,11,11,11,201,35,12,58,168,41,24,52,320,49,25,04,301,36,7*7A
$GAGSV,3,3,11,26,07,036,26,31,63,082,42,33,52,061,46,7*48
$GAGSV,3,1,11,01,15,110,33,03,02,318,32,05,10,271,42,09,03,224,25,2*74
$GAGSV,3,2,11,11,11,201,40,12,58,168,43,24,52,320,49,25,04,301,38,2*71
$GAGSV,3,3,11,26,07,036,34,31,63,082,45,33,52,061,45,2*4A
$GBGSV,3,1,09,04,00,262,,06,07,326,36,16,06,328,33,23,08,133,37,1*78
$GBGSV,3,2,09,27,77,203,47,28,45,047,47,30,23,222,44,36,11,313,33,1*76
$GBGSV,3,3,09,37,59,132,45,1*46
$GNGLL,3725.58365,N,12205.61911,W,021448.00,A,D*6F
$GNRMC,021449.00,A,3725.58365,N,12205.61911,W,0.019,65.19,070220,13.06,E,F,V*4A
$GNVTG,65.19,T,52.13,M,0.019,N,0.036,K,D*3B
$GNGGA,021449.00,3725.58365,N,12205.61911,W,5,12,0.76,4.4,M,-30.0,M,0.0,2000*5A
$GNGSA,A,3,17,02,06,28,12,13,15,24,19,,,,1.48,0.76,1.27,1*0A
$GNGSA,A,3,80,83,73,84,82,,,,,,,,1.48,0.76,1.27,2*0B
$GNGSA,A,3,31,24,12,01,11,33,,,,,,,1.48,0.76,1.27,3*0D
$GNGSA,A,3,37,30,27,28,36,,,,,,,,1.48,0.76,1.27,4*01
$GPGSV,3,1,10,02,25,181,42,06,45,146,45,12,19,292,48,13,17,209,42,1*6E
$GPGSV,3,2,10,15,16,241,47,17,52,040,47,19,76,022,39,24,43,305,46,1*63
$GPGSV,3,3,10,28,33,080,41,30,08,146,37,1*6E
$GPGSV,3,1,10,02,25,181,,06,45,146,45,12,19,292,39,13,17,209,,6*6F
$GPGSV,3,2,10,15,16,241,37,17,52,040,42,19,76,022,,24,43,305,48,6*62
$GPGSV,3,3,10,28,33,080,,30,08,146,32,6*69
$GLGSV,3,1,09,65,01,330,31,72,01,291,13,73,65,353,49,74,26,324,47,1*71
$GLGSV,3,2,09,80,39,118,44,82,21,031,41,83,71,042,31,84,44,203,46,1*72
$GLGSV,3,3,09,,,,52,1*76
$GLGSV,3,1,09,65,01,330,19,72,01,291,,73,65,353,47,74,26,324,,3*76
$GLGSV,3,2,09,80,39,118,31,82,21,031,31,83,71,042,41,84,44,203,44,3*70
$GLGSV,3,3,09,,,,52,3*74
$GAGSV,3,1,11,01,15,110,33,03,02,318,20,05,10,271,42,09,03,224,17,7*73
$GAGSV,3,2,11,11,11,201,35,12,58,168,41,24,52,320,49,25,04,301,36,7*7A
$GAGSV,3,3,11,26,07,036,26,31,63,082,42,33,52,061,46,7*48
$GAGSV,3,1,11,01,15,110,34,03,02,318,31,05,10,271,41,09,03,224,25,2*73
$GAGSV,3,2,11,11,11,201,40,12,58,168,43,24,52,320,49,25,04,301,37,2*7E
$GAGSV,3,3,11,26,07,036,33,31,63,082,45,33,52,061,45,2*4D
$GBGSV,3,1,09,04,00,262,,06,07,326,36,16,06,328,33,23,08,133,36,1*79
$GBGSV,3,2,09,27,77,203,47,28,45,047,47,30,23,222,44,36,11,313,33,1*76
$GBGSV,3,3,09,37,59,132,45,1*46
$GNGLL,3725.58365,N,12205.61911,W,021449.00,A,D*6E
$GNRMC,021450.00,A,3725.58365,N,12205.61911,W,0.018,65.19,070220,13.06,E,F,V*43
$GNVTG,65.19,T,52.13,M,0.018,N,0.033,K,D*3F
$GNGGA,021450.00,3725.58365,N,12205.61911,W,5,12,0.76,4.4,M,-30.0,M,0.0,2000*52
$GNGSA,A,3,17,02,06,28,12,13,15,24,19,,,,1.48,0.76,1.27,1*0A
$GNGSA,A,3,80,83,73,84,82,,,,,,,,1.48,0.76,1.27,2*0B
$GNGSA,A,3,31,24,12,01,11,33,,,,,,,1.48,0.76,1.27,3*0D
$GNGSA,A,3,37,30,27,28,36,,,,,,,,1.48,0.76,1.27,4*01
$GPGSV,3,1,10,02,25,181,42,06,45,146,46,12,19,292,48,13,17,209,42,1*6D
$GPGSV,3,2,10,15,16,241,47,17,52,040,47,19,76,022,39,24,43,305,46,1*63
$GPGSV,3,3,10,28,33,080,41,30,08,146,37,1*6E
$GPGSV,3,1,10,02,25,181,,06,45,146,45,12,19,292,39,13,17,209,,6*6F
$GPGSV,3,2,10,15,16,241,37,17,52,040,42,19,76,022,,24,43,305,48,6*62
$GPGSV,3,3,10,28,33,080,,30,08,146,32,6*69
$GLGSV,3,1,09,65,01,330,31,72,01,291,11,73,65,353,49,74,26,324,47,1*73
$GLGSV,3,2,09,80,39,118,44,82,21,031,41,83,71,042,31,84,44,203,46,1*72
$GLGSV,3,3,09,,,,52,1*76
$GLGSV,3,1,09,65,01,330,20,72,01,291,,73,65,353,47,74,26,324,,3*7C
$GLGSV,3,2,09,80,39,118,31,82,21,031,31,83,71,042,42,84,44,203,44,3*73
$GLGSV,3,3,09,,,,52,3*74
$GAGSV,3,1,11,01,15,110,33,03,02,318,19,05,10,271,42,09,03,224,17,7*79
$GAGSV,3,2,11,11,11,201,36,12,58,168,41,24,52,320,49,25,04,301,36,7*79
$GAGSV,3,3,11,26,07,036,25,31,63,082,42,33,52,061,46,7*4B
$GAGSV,3,1,11,01,15,110,34,03,02,318,31,05,10,271,42,09,03,224,25,2*70
$GAGSV,3,2,11,11,11,201,40,12,58,168,43,24,52,320,49,25,04,301,38,2*71
$GAGSV,3,3,11,26,07,036,33,31,63,082,45,33,52,061,45,2*4D
$GBGSV,3,1,09,04,00,262,,06,07,326,36,16,06,328,33,23,08,133,37,1*78
$GBGSV,3,2,09,27,77,203,47,28,45,047,47,30,23,222,44,36,11,313,33,1*76
$GBGSV,3,3,09,37,59,132,45,1*46
$GNGLL,3725.58365,N,12205.61911,W,021450.00,A,D*66
$GNRMC,021451.00,A,3725.58365,N,12205.61910,W,0.022,65.18,070220,13.06,E,F,V*4B
$GNVTG,65.18,T,52.13,M,0.022,N,0.041,K,D*32
$GNGGA,021451.00,3725.58365,N,12205.61910,W,5,12,0.76,4.4,M,-30.0,M,0.0,2000*52
$GNGSA,A,3,17,02,06,28,12,13,15,24,19,,,,1.48,0.76,1.27,1*0A
$GNGSA,A,3,80,83,73,84,82,,,,,,,,1.48,0.76,1.27,2*0B
$GNGSA,A,3,31,24,12,01,11,33,,,,,,,1.48,0.76,1.27,3*0D
$GNGSA,A,3,37,30,27,28,36,,,,,,,,1.48,0.76,1.27,4*01
$GPGSV,3,1,10,02,25,181,42,06,45,146,46,12,19,292,48,13,17,209,42,1*6D
$GPGSV,3,2,10,15,16,241,48,17,52,040,47,19,76,022,39,24,43,305,46,1*6C
$GPGSV,3,3,10,28,33,080,41,30,08,146,38,1*61
$GPGSV,3,1,10,02,25,181,,06,45,146,45,12,19,292,39,13,17,209,,6*6F
