$GPGGA,021331.00,3725.5838626,N,12205.6186063,W,1,15,1.0,6.83,M,-32.64,M,,*55
$GPRMC,021331.00,A,3725.584,N,12205.619,W,0.0,62.8,070220,,,A*29
$GPGGA,021332.00,3725.5838636,N,12205.6186036,W,1,15,1.0,6.83,M,-32.64,M,,*57
$GPRMC,021332.00,A,3725.584,N,12205.619,W,0.0,62.8,070220,,,A*2A
$GPGGA,021333.00,3725.5838665,N,12205.6185997,W,1,15,0.9,6.83,M,-32.64,M,,*59
$GPRMC,021333.00,A,3725.584,N,12205.619,W,0.0,62.8,070220,,,A*2B
$GPGGA,021334.00,3725.5838696,N,12205.6185952,W,1,15,0.8,6.84,M,-32.64,M,,*5D
$GPRMC,021334.00,A,3725.584,N,12205.619,W,0.0,62.8,070220,,,A*55
$GPGGA,021335.00,3725.5838688,N,12205.6185958,W,1,15,0.8,6.83,M,-32.64,M,,*5E
$GPRMC,021335.00,A,3725.584,N,12205.619,W,0.0,62.8,070220,,,A*56
$GPGGA,021336.00,3725.5838677,N,12205.6185972,W,1,15,0.8,6.83,M,-32.64,M,,*55
$GPRMC,021336.00,A,3725.584,N,12205.619,W,0.0,62.8,070220,,,A*2E
$GPGGA,021337.00,3725.5838672,N,12205.6185980,W,1,15,0.9,6.83,M,-32.64,M,,*5D
$GPRMC,021337.00,A,3725.584,N,12205.619,W,0.0,62.8,070220,,,A*56
$GPGGA,021338.00,3725.5838671,N,12205.6185981,W,1,15,0.9,6.83,M,-32.64,M,,*50
$GPRMC,021338.00,A,3725.584,N,12205.619,W,0.0,62.8,070220,,,A*20
$GPGGA,021339.00,3725.5838671,N,12205.6185981,W,1,15,0.9,6.83,M,-32.64,M,,*51
$GPRMC,021339.00,A,3725.584,N,12205.619,W,0.0,62.8,070220,,,A*21
$GPGGA,021340.00,3725.5838671,N,12205.6185981,W,1,15,0.9,6.83,M,-32.64,M,,*5F
$GPRMC,021340.00,A,3725.584,N,12205.619,W,0.0,62.8,070220,,,A*56
$GPGGA,021341.00,3725.5838671,N,12205.6185981,W,1,15,0.9,6.83,M,-32.64,M,,*5E
$GPRMC,021341.00,A,3725.584,N,12205.619,W,0.0,62.8,070220,,,A*55
$GPGGA,021342.00,3725.5838671,N,12205.6185981,W,1,15,0.9,6.83,M,-32.64,M,,*5D
$GPRMC,021342.00,A,3725.584,N,12205.619,W,0.0,62.8,070220,,,A*54
$GPGGA,021343.00,3725.5838671,N,12205.6185981,W,1,15,0.9,6.83,M,-32.64,M,,*5C
$GPRMC,021343.00,A,3725.584,N,12205.619,W,0.0,62.8,070220,,,A*53
$GPGGA,021344.00,3725.5838671,N,12205.6185981,W,1,15,0.9,6.83,M,-32.64,M,,*5B
$GPRMC,021344.00,A,3725.584,N,12205.619,W,0.0,62.8,070220,,,A*52
$GPGGA,021345.00,3725.5838671,N,12205.6185981,W,1,15,0.9,6.83,M,-32.64,M,,*5A
$GPRMC,021345.00,A,3725.584,N,12205.619,W,0.0,62.8,070220,,,A*51
$GPGGA,021346.00,3725.5838671,N,12205.6185981,W,1,15,0.9,6.83,M,-32.64,M,,*59
$GPRMC,021346.00,A,3725.584,N,12205.619,W,0.0,62.8,070220,,,A*29
$GPGGA,021347.00,3725.5838671,N,12205.6185981,W,1,15,0.9,6.83,M,-32.64,M,,*58
$GPRMC,021347.00,A,3725.584,N,12205.619,W,0.0,62.8,070220,,,A*28
$GPGGA,021348.00,3725.5838671,N,12205.6185981,W,1,15,0.9,6.83,M,-32.64,M,,*57
$GPRMC,021348.00,A,3725.584,N,12205.619,W,0.0,62.8,070220,,,A*27
$GPGGA,021349.00,3725.5838671,N,12205.6185981,W,1,15,0.9,6.83,M,-32.64,M,,*56
$GPRMC,021349.00,A,3725.584,N,12205.619,W,0.0,62.8,070220,,,A*26
$GPGGA,021350.00,3725.5838671,N,12205.6185981,W,1,15,0.9,6.83,M,-32.64,M,,*5E
$GPRMC,021350.00,A,3725.584,N,12205.619,W,0.0,62.8,070220,,,A*55
$GPGGA,021351.00,3725.5838671,N,12205.6185981,W,1,15,0.9,6.83,M,-32.64,M,,*5F
$GPRMC,021351.00,A,3725.584,N,12205.619,W,0.0,62.8,070220,,,A*56
$GPGGA,021352.00,3725.5838671,N,12205.6185981,W,1,15,0.9,6.83,M,-32.64,M,,*5C
$GPRMC,021352.00,A,3725.584,N,12205.619,W,0.0,62.8,070220,,,A*53
$GPGGA,021353.00,3725.5838671,N,12205.6185981,W,1,15,0.9,6.83,M,-32.64,M,,*5D
$GPRMC,021353.00,A,3725.584,N,12205.619,W,0.0,62.8,070220,,,A*54
$GPGGA,021354.00,3725.5838671,N,12205.6185981,W,1,15,0.9,6.83,M,-32.64,M,,*5A
$GPRMC,021354.00,A,3725.584,N,12205.619,W,0.0,62.8,070220,,,A*51
$GPGGA,021355.00,3725.5838672,N,12205.6185974,W,1,15,0.9,6.83,M,-32.64,M,,*52
$GPRMC,021355.00,A,3725.584,N,12205.619,W,0.0,62.8,070220,,,A*2B
$GPGGA,021356.00,3725.5838671,N,12205.6185962,W,1,15,0.9,6.82,M,-32.64,M,,*54
$GPRMC,021356.00,A,3725.584,N,12205.619,W,0.0,62.8,070220,,,A*28
$GPGGA,021357.00,3725.5838667,N,12205.6185960,W,1,15,0.9,6.82,M,-32.64,M,,*50
$GPRMC,021357.00,A,3725.584,N,12205.619,W,0.0,62.8,070220,,,A*29
$GPGGA,021358.00,3725.5838665,N,12205.6185967,W,1,15,0.9,6.81,M,-32.64,M,,*59
$GPRMC,021358.00,A,3725.584,N,12205.619,W,0.0,62.8,070220,,,A*26
$GPGGA,021359.00,3725.5838666,N,12205.6185969,W,1,15,0.9,6.81,M,-32.64,M,,*55
$GPRMC,021359.00,A,3725.584,N,12205.619,W,0.0,62.8,070220,,,A*27
$GPGGA,021400.00,3725.5838668,N,12205.6185971,W,1,15,0.9,6.81,M,-32.64,M,,*59
$GPRMC,021400.00,A,3725.584,N,12205.619,W,0.0,62.8,070220,,,A*2C
$GPGGA,021401.00,3725.5838669,N,12205.6185972,W,1,15,0.9,6.81,M,-32.64,M,,*5A
$GPRMC,021401.00,A,3725.584,N,12205.619,W,0.0,62.8,070220,,,A*56
$GPGGA,021402.00,3725.5838669,N,12205.6185972,W,1,15,0.9,6.81,M,-32.64,M,,*59
$GPRMC,021402.00,A,3725.584,N,12205.619,W,0.0,62.8,070220,,,A*2E
$GPGGA,021403.00,3725.5838670,N,12205.6185974,W,1,15,0.9,6.81,M,-32.64,M,,*56
$GPRMC,021403.00,A,3725.584,N,12205.619,W,0.0,62.8,070220,,,A*2F
$GPGGA,021404.00,3725.5838670,N,12205.6185980,W,1,15,0.9,6.81,M,-32.64,M,,*5A
$GPRMC,021404.00,A,3725.584,N,12205.619,W,0.0,62.8,070220,,,A*53
$GPGGA,021405.00,3725.5838670,N,12205.6185983,W,1,15,0.9,6.81,M,-32.64,M,,*58
$GPRMC,021405.00,A,3725.584,N,12205.619,W,0.0,62.8,070220,,,A*29
$GPGGA,021406.00,3725.5838670,N,12205.6185983,W,1,15,0.9,6.81,M,-32.64,M,,*5B
$GPRMC,021406.00,A,3725.584,N,12205.619,W,0.0,62.8,070220,,,A*53
$GPGGA,021407.00,3725.5838670,N,12205.6185983,W,1,15,0.9,6.81,M,-32.64,M,,*5A
$GPRMC,021407.00,A,3725.584,N,12205.619,W,0.0,62.8,070220,,,A*50
$GPGGA,021408.00,3725.5838670,N,12205.6185983,W,1,15,0.9,6.81,M,-32.64,M,,*55
$GPRMC,021408.00,A,3725.584,N,12205.619,W,0.0,62.8,070220,,,A*24
$GPGGA,021409.00,3725.5838670,N,12205.6185983,W,1,15,0.9,6.81,M,-32.64,M,,*54
$GPRMC,021409.00,A,3725.584,N,12205.619,W,0.0,62.8,070220,,,A*25
$GPGGA,021410.00,3725.5838670,N,12205.6185983,W,1,15,0.9,6.81,M,-32.64,M,,*5C
$GPRMC,021410.00,A,3725.584,N,12205.619,W,0.0,62.8,070220,,,A*52
$GPGGA,021411.00,3725.5838670,N,12205.6185983,W,1,15,0.9,6.81,M,-32.64,M,,*5D
$GPRMC,021411.00,A,3725.584,N,12205.619,W,0.0,62.8,070220,,,A*55
$GPGGA,021412.00,3725.5838670,N,12205.6185983,W,1,15,0.9,6.81,M,-32.64,M,,*5E
$GPRMC,021412.00,A,3725.584,N,12205.619,W,0.0,62.8,070220,,,A*54
$GPGGA,021413.00,3725.5838670,N,12205.6185983,W,1,15,0.9,6.81,M,-32.64,M,,*5F
$GPRMC,021413.00,A,3725.584,N,12205.619,W,0.0,62.8,070220,,,A*57
$GPGGA,021414.00,3725.5838670,N,12205.6185983,W,1,15,0.9,6.81,M,-32.64,M,,*58
$GPRMC,021414.00,A,3725.584,N,12205.619,W,0.0,62.8,070220,,,A*29
$GPGGA,021415.00,3725.5838670,N,12205.6185983,W,1,15,0.9,6.81,M,-32.64,M,,*59
$GPRMC,021415.00,A,3725.584,N,12205.619,W,0.0,62.8,070220,,,A*28
$GPGGA,021416.00,3725.5838670,N,12205.6185983,W,1,15,0.9,6.81,M,-32.64,M,,*5A
$GPRMC,021416.00,A,3725.584,N,12205.619,W,0.0,62.8,070220,,,A*50
$GPGGA,021417.00,3725.5838670,N,12205.6185983,W,1,15,0.9,6.81,M,-32.64,M,,*5B
$GPRMC,021417.00,A,3725.584,N,12205.619,W,0.0,62.8,070220,,,A*53
$GPGGA,021418.00,3725.5838670,N,12205.6185983,W,1,15,0.9,6.81,M,-32.64,M,,*54
$GPRMC,021418.00,A,3725.584,N,12205.619,W,0.0,62.8,070220,,,A*25
$GPGGA,021419.00,3725.5838670,N,12205.6185983,W,1,15,0.9,6.81,M,-32.64,M,,*55
$GPRMC,021419.00,A,3725.584,N,12205.619,W,0.0,62.8,070220,,,A*24
$GPGGA,021420.00,3725.5838670,N,12205.6185983,W,1,15,0.9,6.81,M,-32.64,M,,*5F
$GPRMC,021420.00,A,3725.584,N,12205.619,W,0.0,62.8,070220,,,A*57
$GPGGA,021421.00,3725.5838670,N,12205.6185983,W,1,15,0.9,6.81,M,-32.64,M,,*5E
$GPRMC,021421.00,A,3725.584,N,12205.619,W,0.0,62.8,070220,,,A*54
$GPGGA,021422.00,3725.5838670,N,12205.6185983,W,1,15,0.9,6.81,M,-32.64,M,,*5D
$GPRMC,021422.00,A,3725.584,N,12205.619,W,0.0,62.8,070220,,,A*55
$GPGGA,021423.00,3725.5838673,N,12205.6185979,W,1,15,0.9,6.81,M,-32.64,M,,*5A
$GPRMC,021423.00,A,3725.584,N,12205.619,W,0.0,62.8,070220,,,A*56
$GPGGA,021424.00,3725.5838675,N,12205.6185974,W,1,15,0.9,6.81,M,-32.64,M,,*56
$GPRMC,021424.00,A,3725.584,N,12205.619,W,0.0,62.8,070220,,,A*2A
$GPGGA,021425.00,3725.5838672,N,12205.6185974,W,1,15,0.9,6.81,M,-32.64,M,,*50
$GPRMC,021425.00,A,3725.584,N,12205.619,W,0.0,62.8,070220,,,A*2B
$GPGGA,021426.00,3725.5838672,N,12205.6185976,W,1,15,0.9,6.80,M,-32.64,M,,*50
$GPRMC,021426.00,A,3725.584,N,12205.619,W,0.0,62.8,070220,,,A*28
$GPGGA,021427.00,3725.5838667,N,12205.6185993,W,1,15,0.9,6.81,M,-32.64,M,,*5F
$GPRMC,021427.00,A,3725.584,N,12205.619,W,0.0,62.8,070220,,,A*50
$GPGGA,021428.00,3725.5838657,N,12205.6186009,W,1,15,0.9,6.81,M,-32.64,M,,*5A
$GPRMC,021428.00,A,3725.584,N,12205.619,W,0.0,62.8,070220,,,A*5D
$GPGGA,021429.00,3725.5838655,N,12205.6186012,W,1,15,0.9,6.81,M,-32.64,M,,*53
$GPRMC,021429.00,A,3725.584,N,12205.619,W,0.0,62.8,070220,,,A*27
$GPGGA,021430.00,3725.5838655,N,12205.6186012,W,1,15,0.9,6.81,M,-32.64,M,,*5B
$GPRMC,021430.00,A,3725.584,N,12205.619,W,0.0,62.8,070220,,,A*56
$GPGGA,021431.00,3725.5838655,N,12205.6186010,W,1,15,0.9,6.81,M,-32.64,M,,*58
$GPRMC,021431.00,A,3725.584,N,12205.619,W,0.0,62.8,070220,,,A*2E
$GPGGA,021432.00,3725.5838652,N,12205.6186009,W,1,15,0.9,6.81,M,-32.64,M,,*54
$GPRMC,021432.00,A,3725.584,N,12205.619,W,0.0,62.8,070220,,,A*2D
$GPGGA,021433.00,3725.5838651,N,12205.6186007,W,1,15,0.9,6.82,M,-32.64,M,,*5B
$GPRMC,021433.00,A,3725.584,N,12205.619,W,0.0,62.8,070220,,,A*55
$GPGGA,021434.00,3725.5838651,N,12205.6186007,W,1,15,0.9,6.82,M,-32.64,M,,*5C
$GPRMC,021434.00,A,3725.584,N,12205.619,W,0.0,62.8,070220,,,A*54
$GPGGA,021435.00,3725.5838651,N,12205.6186007,W,1,15,0.9,6.82,M,-32.64,M,,*5D
$GPRMC,021435.00,A,3725.584,N,12205.619,W,0.0,62.8,070220,,,A*53
$GPGGA,021436.00,3725.5838651,N,12205.6186007,W,1,15,0.9,6.82,M,-32.64,M,,*5E
$GPRMC,021436.00,A,3725.584,N,12205.619,W,0.0,62.8,070220,,,A*52
$GPGGA,021437.00,3725.5838651,N,12205.6186007,W,1,15,0.9,6.82,M,-32.64,M,,*5F
$GPRMC,021437.00,A,3725.584,N,12205.619,W,0.0,62.8,070220,,,A*51
$GPGGA,021438.00,3725.5838651,N,12205.6186007,W,1,15,0.9,6.82,M,-32.64,M,,*50
$GPRMC,021438.00,A,3725.584,N,12205.619,W,0.0,62.8,070220,,,A*27
$GPGGA,021439.00,3725.5838651,N,12205.6186007,W,1,15,0.9,6.82,M,-32.64,M,,*51
$GPRMC,021439.00,A,3725.584,N,12205.619,W,0.0,62.8,070220,,,A*26
$GPGGA,021440.00,3725.5838651,N,12205.6186007,W,1,15,0.9,6.82,M,-32.64,M,,*5F
$GPRMC,021440.00,A,3725.584,N,12205.619,W,0.0,62.8,070220,,,A*51
$GPGGA,021441.00,3725.5838651,N,12205.6186007,W,1,15,0.9,6.82,M,-32.64,M,,*5E
$GPRMC,021441.00,A,3725.584,N,12205.619,W,0.0,62.8,070220,,,A*52
$GPGGA,021442.00,3725.5838651,N,12205.6186007,W,1,15,0.9,6.82,M,-32.64,M,,*5D
$GPRMC,021442.00,A,3725.584,N,12205.619,W,0.0,62.8,070220,,,A*53
$GPGGA,021443.00,3725.5838651,N,12205.6186007,W,1,15,0.9,6.82,M,-32.64,M,,*5C
$GPRMC,021443.00,A,3725.584,N,12205.619,W,0.0,62.8,070220,,,A*54
$GPGGA,021444.00,3725.5838651,N,12205.6186007,W,1,15,0.9,6.82,M,-32.64,M,,*5B
$GPRMC,021444.00,A,3725.584,N,12205.619,W,0.0,62.8,070220,,,A*55
$GPGGA,021445.00,3725.5838651,N,12205.6186007,W,1,15,0.9,6.82,M,-32.64,M,,*5A
$GPRMC,021445.00,A,3725.584,N,12205.619,W,0.0,62.8,070220,,,A*56
$GPGGA,021446.00,3725.5838651,N,12205.6186007,W,1,15,0.9,6.82,M,-32.64,M,,*59
$GPRMC,021446.00,A,3725.584,N,12205.619,W,0.0,62.8,070220,,,A*2E
$GPGGA,021447.00,3725.5838651,N,12205.6186007,W,1,15,0.9,6.82,M,-32.64,M,,*58
$GPRMC,021447.00,A,3725.584,N,12205.619,W,0.0,62.8,070220,,,A*2F
$GPGGA,021448.00,3725.5838651,N,12205.6186007,W,1,15,0.9,6.82,M,-32.64,M,,*57
$GPRMC,021448.00,A,3725.584,N,12205.619,W,0.0,62.8,070220,,,A*20
$GPGGA,021449.00,3725.5838651,N,12205.6186007,W,1,15,0.9,6.82,M,-32.64,M,,*56
$GPRMC,021449.00,A,3725.584,N,12205.619,W,0.0,62.9,070220,,,A*20
$GPGGA,021450.00,3725.5838651,N,12205.6186007,W,1,15,0.9,6.82,M,-32.64,M,,*5E
$GPRMC,021450.00,A,3725.584,N,12205.619,W,0.0,62.8,070220,,,A*52
$GPGGA,021451.00,3725.5838653,N,12205.6186006,W,1,15,0.9,6.82,M,-32.64,M,,*5C
$GPRMC,021451.00,A,3725.584,N,12205.619,W,0.0,62.8,070220,,,A*57
$GPGGA,021452.00,3725.5838662,N,12205.6186005,W,1,15,0.9,6.81,M,-32.64,M,,*5D
$GPRMC,021452.00,A,3725.584,N,12205.619,W,0.0,62.8,070220,,,A*52
$GPGGA,021453.00,3725.5838679,N,12205.6186006,W,1,15,0.9,6.81,M,-32.64,M,,*55
$GPRMC,021453.00,A,3725.584,N,12205.619,W,0.0,62.8,070220,,,A*2A
$GPGGA,021454.00,3725.5838688,N,12205.6186002,W,1,15,0.9,6.81,M,-32.64,M,,*58
$GPRMC,021454.00,A,3725.584,N,12205.619,W,0.0,62.8,070220,,,A*2D
$GPGGA,021455.00,3725.5838695,N,12205.6185994,W,1,15,0.9,6.81,M,-32.64,M,,*50
$GPRMC,021455.00,A,3725.584,N,12205.619,W,0.0,62.8,070220,,,A*2C
$GPGGA,021456.00,3725.5838697,N,12205.6185988,W,1,15,0.9,6.81,M,-32.64,M,,*5C
$GPRMC,021456.00,A,3725.584,N,12205.619,W,0.0,62.8,070220,,,A*50
$GPGGA,021457.00,3725.5838697,N,12205.6185985,W,1,15,0.9,6.81,M,-32.64,M,,*50
$GPRMC,021457.00,A,3725.584,N,12205.619,W,0.0,62.8,070220,,,A*2E
$GPGGA,021458.00,3725.5838697,N,12205.6185985,W,1,15,0.9,6.81,M,-32.64,M,,*5F
$GPRMC,021458.00,A,3725.584,N,12205.619,W,0.0,62.8,070220,,,A*58
$GPGGA,021459.00,3725.5838695,N,12205.6185986,W,1,15,0.9,6.82,M,-32.64,M,,*5C
$GPRMC,021459.00,A,3725.584,N,12205.619,W,0.0,62.8,070220,,,A*5F
$GPGGA,021500.00,3725.5838692,N,12205.6185990,W,1,15,0.9,6.82,M,-32.64,M,,*51
$GPRMC,021500.00,A,3725.584,N,12205.619,W,0.0,62.8,070220,,,A*2D
$GPGGA,021501.00,3725.5838690,N,12205.6185992,W,1,15,0.9,6.82,M,-32.64,M,,*50
$GPRMC,021501.00,A,3725.584,N,12205.619,W,0.0,62.8,070220,,,A*2C
$GPGGA,021502.00,3725.5838690,N,12205.6185992,W,1,15,0.9,6.82,M,-32.64,M,,*53
$GPRMC,021502.00,A,3725.584,N,12205.619,W,0.0,62.8,070220,,,A*2F
$GPGGA,021503.00,3725.5838690,N,12205.6185992,W,1,15,0.9,6.82,M,-32.64,M,,*52
$GPRMC,021503.00,A,3725.584,N,12205.619,W,0.0,62.8,070220,,,A*2E
$GPGGA,021504.00,3725.5838690,N,12205.6185992,W,1,15,0.9,6.82,M,-32.64,M,,*55
$GPRMC,021504.00,A,3725.584,N,12205.619,W,0.0,62.8,070220,,,A*29
$GPGGA,021505.00,3725.5838690,N,12205.6185992,W,1,15,0.9,6.82,M,-32.64,M,,*54
$GPRMC,021505.00,A,3725.584,N,12205.619,W,0.0,62.8,070220,,,A*28
$GPGGA,021506.00,3725.5838690,N,12205.6185992,W,1,15,0.9,6.82,M,-32.64,M,,*57
$GPRMC,021506.00,A,3725.584,N,12205.619,W,0.0,62.8,070220,,,A*2B
$GPGGA,021507.00,3725.5838690,N,12205.6185992,W,1,15,0.9,6.82,M,-32.64,M,,*56
$GPRMC,021507.00,A,3725.584,N,12205.619,W,0.0,62.8,070220,,,A*2A
$GPGGA,021508.00,3725.5838690,N,12205.6185992,W,1,15,0.9,6.82,M,-32.64,M,,*59
$GPRMC,021508.00,A,3725.584,N,12205.619,W,0.0,62.8,070220,,,A*25
$GPGGA,021509.00,3725.5838690,N,12205.6185992,W,1,15,0.9,6.82,M,-32.64,M,,*58
$GPRMC,021509.00,A,3725.584,N,12205.619,W,0.0,62.8,070220,,,A*24
$GPGGA,021510.00,3725.5838690,N,12205.6185992,W,1,15,0.9,6.82,M,-32.64,M,,*50
$GPRMC,021510.00,A,3725.584,N,12205.619,W,0.0,62.8,070220,,,A*2C
$GPGGA,021511.00,3725.5838690,N,12205.6185992,W,1,15,0.9,6.82,M,-32.64,M,,*51
$GPRMC,021511.00,A,3725.584,N,12205.619,W,0.0,62.8,070220,,,A*2D
$GPGGA,021512.00,3725.5838690,N,12205.6185992,W,1,15,0.9,6.82,M,-32.64,M,,*52
$GPRMC,021512.00,A,3725.584,N,12205.619,W,0.0,62.8,070220,,,A*2E
$GPGGA,021513.00,3725.5838690,N,12205.6185992,W,1,15,0.9,6.82,M,-32.64,M,,*53
$GPRMC,021513.00,A,3725.584,N,12205.619,W,0.0,62.8,070220,,,A*2F
$GPGGA,021514.00,3725.5838690,N,12205.6185992,W,1,15,0.9,6.82,M,-32.64,M,,*54
$GPRMC,021514.00,A,3725.584,N,12205.619,W,0.0,62.8,070220,,,A*28
$GPGGA,021515.00,3725.5838690,N,12205.6185992,W,1,15,0.9,6.82,M,-32.64,M,,*55
$GPRMC,021515.00,A,3725.584,N,12205.619,W,0.0,62.8,070220,,,A*29
$GPGGA,021516.00,3725.5838690,N,12205.6185992,W,1,15,0.9,6.82,M,-32.64,M,,*56
$GPRMC,021516.00,A,3725.584,N,12205.619,W,0.0,62.8,070220,,,A*2A
$GPGGA,021517.00,3725.5838690,N,12205.6185992,W,1,15,0.9,6.82,M,-32.64,M,,*57
$GPRMC,021517.00,A,3725.584,N,12205.619,W,0.0,62.8,070220,,,A*2B
$GPGGA,021518.00,3725.5838690,N,12205.6185992,W,1,15,0.8,6.82,M,-32.64,M,,*59
$GPRMC,021518.00,A,3725.584,N,12205.619,W,0.0,62.8,070220,,,A*24
$GPGGA,021519.00,3725.5838690,N,12205.6185992,W,1,15,0.8,6.82,M,-32.64,M,,*58
$GPRMC,021519.00,A,3725.584,N,12205.619,W,0.0,62.8,070220,,,A*25
$GPGGA,021520.00,3725.5838694,N,12205.6185988,W,1,15,0.8,6.82,M,-32.64,M,,*5D
$GPRMC,021520.00,A,3725.584,N,12205.619,W,0.0,62.8,070220,,,A*56
$GPGGA,021521.00,3725.5838704,N,12205.6185980,W,1,15,0.8,6.81,M,-32.64,M,,*5F
$GPRMC,021521.00,A,3725.584,N,12205.619,W,0.0,62.8,070220,,,A*57
$GPGGA,021522.00,3725.5838710,N,12205.6185975,W,1,15,0.8,6.81,M,-32.64,M,,*53
$GPRMC,021522.00,A,3725.584,N,12205.619,W,0.0,62.8,070220,,,A*2D
$GPGGA,021523.00,3725.5838711,N,12205.6185974,W,1,15,0.8,6.81,M,-32.64,M,,*52
$GPRMC,021523.00,A,3725.584,N,12205.619,W,0.0,62.8,070220,,,A*2C
$GPGGA,021524.00,3725.5838710,N,12205.6185984,W,1,15,0.8,6.81,M,-32.64,M,,*5B
$GPRMC,021524.00,A,3725.584,N,12205.619,W,0.0,62.8,070220,,,A*52
$GPGGA,021525.00,3725.5838711,N,12205.6185985,W,1,15,0.8,6.80,M,-32.64,M,,*5B
$GPRMC,021525.00,A,3725.584,N,12205.619,W,0.0,62.8,070220,,,A*53
$GPGGA,021526.00,3725.5838712,N,12205.6185986,W,1,15,0.8,6.80,M,-32.64,M,,*58
$GPRMC,021526.00,A,3725.584,N,12205.619,W,0.0,62.8,070220,,,A*29
$GPGGA,021527.00,3725.5838711,N,12205.6185983,W,1,15,0.8,6.80,M,-32.64,M,,*5F
$GPRMC,021527.00,A,3725.584,N,12205.619,W,0.0,62.8,070220,,,A*51
$GPGGA,021528.00,3725.5838705,N,12205.6185982,W,1,15,0.8,6.81,M,-32.64,M,,*55
$GPRMC,021528.00,A,3725.584,N,12205.619,W,0.0,62.8,070220,,,A*27
$GPGGA,021529.00,3725.5838699,N,12205.6185989,W,1,15,0.8,6.81,M,-32.64,M,,*5B
$GPRMC,021529.00,A,3725.584,N,12205.619,W,0.0,62.8,070220,,,A*5F
$GPGGA,021530.00,3725.5838697,N,12205.6185991,W,1,15,0.8,6.81,M,-32.64,M,,*54
$GPRMC,021530.00,A,3725.584,N,12205.619,W,0.0,62.8,070220,,,A*2E
$GPGGA,021531.00,3725.5838697,N,12205.6185991,W,1,15,0.8,6.81,M,-32.64,M,,*55
$GPRMC,021531.00,A,3725.584,N,12205.619,W,0.0,62.8,070220,,,A*2F
$GPGGA,021532.00,3725.5838697,N,12205.6185991,W,1,15,0.8,6.81,M,-32.64,M,,*56
$GPRMC,021532.00,A,3725.584,N,12205.619,W,0.0,62.8,070220,,,A*2C
$GPGGA,021533.00,3725.5838697,N,12205.6185991,W,1,15,0.8,6.81,M,-32.64,M,,*57
$GPRMC,021533.00,A,3725.584,N,12205.619,W,0.0,62.8,070220,,,A*2D
$GPGGA,021534.00,3725.5838697,N,12205.6185991,W,1,15,0.8,6.81,M,-32.64,M,,*50
$GPRMC,021534.00,A,3725.584,N,12205.619,W,0.0,62.8,070220,,,A*2A
$GPGGA,021535.00,3725.5838697,N,12205.6185991,W,1,15,0.8,6.81,M,-32.64,M,,*51
$GPRMC,021535.00,A,3725.584,N,12205.619,W,0.0,62.8,070220,,,A*2B
$GPGGA,021536.00,3725.5838697,N,12205.6185991,W,1,15,0.8,6.81,M,-32.64,M,,*52
$GPRMC,021536.00,A,3725.584,N,12205.619,W,0.0,62.8,070220,,,A*28
$GPGGA,021537.00,3725.5838697,N,12205.6185991,W,1,15,0.8,6.81,M,-32.64,M,,*53
$GPRMC,021537.00,A,3725.584,N,12205.619,W,0.0,62.8,070220,,,A*29
$GPGGA,021538.00,3725.5838697,N,12205.6185991,W,1,15,0.8,6.81,M,-32.64,M,,*5C
$GPRMC,021538.00,A,3725.584,N,12205.619,W,0.0,62.8,070220,,,A*59
$GPGGA,021539.00,3725.5838697,N,12205.6185991,W,1,15,0.8,6.81,M,-32.64,M,,*5D
$GPRMC,021539.00,A,3725.584,N,12205.619,W,0.0,62.8,070220,,,A*5E
$GPGGA,021540.00,3725.5838697,N,12205.6185991,W,1,15,0.8,6.81,M,-32.64,M,,*53
$GPRMC,021540.00,A,3725.584,N,12205.619,W,0.0,62.8,070220,,,A*29
$GPGGA,021541.00,3725.5838697,N,12205.6185991,W,1,15,0.8,6.81,M,-32.64,M,,*52
$GPRMC,021541.00,A,3725.584,N,12205.619,W,0.0,62.8,070220,,,A*28
$GPGGA,021542.00,3725.5838697,N,12205.6185991,W,1,15,0.8,6.81,M,-32.64,M,,*51
$GPRMC,021542.00,A,3725.584,N,12205.619,W,0.0,62.8,070220,,,A*2B
$GPGGA,021543.00,3725.5838697,N,12205.6185991,W,1,15,0.8,6.81,M,-32.64,M,,*50
$GPRMC,021543.00,A,3725.584,N,12205.619,W,0.0,62.8,070220,,,A*2A
$GPGGA,021544.00,3725.5838697,N,12205.6185991,W,1,15,0.8,6.81,M,-32.64,M,,*57
$GPRMC,021544.00,A,3725.584,N,12205.619,W,0.0,62.8,070220,,,A*2D
$GPGGA,021545.00,3725.5838697,N,12205.6185991,W,1,15,0.8,6.81,M,-32.64,M,,*56
$GPRMC,021545.00,A,3725.584,N,12205.619,W,0.0,62.8,070220,,,A*2C
$GPGGA,021546.00,3725.5838697,N,12205.6185991,W,1,15,0.8,6.81,M,-32.64,M,,*55
$GPRMC,021546.00,A,3725.584,N,12205.619,W,0.0,62.8,070220,,,A*2F
$GPGGA,021547.00,3725.5838697,N,12205.6185991,W,1,15,0.8,6.81,M,-32.64,M,,*54
$GPRMC,021547.00,A,3725.584,N,12205.619,W,0.0,62.8,070220,,,A*2E
$GPGGA,021548.00,3725.5838699,N,12205.6185987,W,1,15,0.8,6.81,M,-32.64,M,,*52
$GPRMC,021548.00,A,3725.584,N,12205.619,W,0.0,62.8,070220,,,A*21
$GPGGA,021549.00,3725.5838702,N,12205.6185975,W,1,15,0.8,6.80,M,-32.64,M,,*5C
$GPRMC,021549.00,A,3725.584,N,12205.619,W,0.0,62.8,070220,,,A*5F
$GPGGA,021550.00,3725.5838703,N,12205.6185957,W,1,15,0.8,6.80,M,-32.64,M,,*55
$GPRMC,021550.00,A,3725.584,N,12205.619,W,0.0,62.8,070220,,,A*28
$GPGGA,021551.00,3725.5838701,N,12205.6185945,W,1,15,0.8,6.80,M,-32.64,M,,*55
$GPRMC,021551.00,A,3725.584,N,12205.619,W,0.0,62.8,070220,,,A*29
$GPGGA,021552.00,3725.5838708,N,12205.6185926,W,1,15,0.8,6.79,M,-32.64,M,,*5C
$GPRMC,021552.00,A,3725.584,N,12205.619,W,0.0,62.8,070220,,,A*55
$GPGGA,021553.00,3725.5838711,N,12205.6185919,W,1,15,0.8,6.79,M,-32.64,M,,*59
$GPRMC,021553.00,A,3725.584,N,12205.619,W,0.0,62.8,070220,,,A*2B
$GPGGA,021554.00,3725.5838713,N,12205.6185912,W,1,15,0.8,6.79,M,-32.64,M,,*57
$GPRMC,021554.00,A,3725.584,N,12205.619,W,0.0,62.8,070220,,,A*2C
$GPGGA,021555.00,3725.5838714,N,12205.6185909,W,1,15,0.8,6.79,M,-32.64,M,,*5B
$GPRMC,021555.00,A,3725.584,N,12205.619,W,0.0,62.8,070220,,,A*54
$GPGGA,021556.00,3725.5838712,N,12205.6185912,W,1,15,0.8,6.80,M,-32.64,M,,*52
$GPRMC,021556.00,A,3725.584,N,12205.619,W,0.0,62.8,070220,,,A*2E
$GPGGA,021557.00,3725.5838705,N,12205.6185924,W,1,15,0.8,6.80,M,-32.64,M,,*50
$GPRMC,021557.00,A,3725.584,N,12205.619,W,0.0,62.8,070220,,,A*2F
$GPGGA,021558.00,3725.5838702,N,12205.6185943,W,1,15,0.8,6.80,M,-32.64,M,,*59
$GPRMC,021558.00,A,3725.584,N,12205.619,W,0.0,62.8,070220,,,A*20
$GPGGA,021559.00,3725.5838703,N,12205.6185947,W,1,15,0.8,6.80,M,-32.64,M,,*5D
$GPRMC,021559.00,A,3725.584,N,12205.619,W,0.0,62.8,070220,,,A*58
$GPGGA,021600.00,3725.5838703,N,12205.6185947,W,1,15,0.8,6.80,M,-32.64,M,,*52
$GPRMC,021600.00,A,3725.584,N,12205.619,W,0.0,62.8,070220,,,A*2E
$GPGGA,021601.00,3725.5838703,N,12205.6185947,W,1,15,0.8,6.80,M,-32.64,M,,*53
$GPRMC,021601.00,A,3725.584,N,12205.619,W,0.0,62.8,070220,,,A*2F
$GPGGA,021602.00,3725.5838703,N,12205.6185947,W,1,15,0.8,6.80,M,-32.64,M,,*50
$GPRMC,021602.00,A,3725.584,N,12205.619,W,0.0,62.8,070220,,,A*2C
$GPGGA,021603.00,3725.5838703,N,12205.6185947,W,1,15,0.8,6.80,M,-32.64,M,,*51
$GPRMC,021603.00,A,3725.584,N,12205.619,W,0.0,62.8,070220,,,A*2D
$GPGGA,021604.00,3725.5838703,N,12205.6185947,W,1,15,0.8,6.80,M,-32.64,M,,*56
$GPRMC,021604.00,A,3725.584,N,12205.619,W,0.0,62.8,070220,,,A*2A
$GPGGA,021605.00,3725.5838703,N,12205.6185947,W,1,15,0.8,6.80,M,-32.64,M,,*57
$GPRMC,021605.00,A,3725.584,N,12205.619,W,0.0,62.8,070220,,,A*2B
$GPGGA,021606.00,3725.5838703,N,12205.6185947,W,1,15,0.8,6.80,M,-32.64,M,,*54
$GPRMC,021606.00,A,3725.584,N,12205.619,W,0.0,62.8,070220,,,A*28
$GPGGA,021607.00,3725.5838703,N,12205.6185947,W,1,15,0.8,6.80,M,-32.64,M,,*55
$GPRMC,021607.00,A,3725.584,N,12205.619,W,0.0,62.8,070220,,,A*29
$GPGGA,021608.00,3725.5838703,N,12205.6185947,W,1,15,0.8,6.80,M,-32.64,M,,*5A
$GPRMC,021608.00,A,3725.584,N,12205.619,W,0.0,62.8,070220,,,A*5D
$GPGGA,021609.00,3725.5838703,N,12205.6185947,W,1,15,0.8,6.80,M,-32.64,M,,*5B
$GPRMC,021609.00,A,3725.584,N,12205.619,W,0.0,62.8,070220,,,A*5E
$GPGGA,021610.00,3725.5838703,N,12205.6185947,W,1,15,0.8,6.80,M,-32.64,M,,*53
$GPRMC,021610.00,A,3725.584,N,12205.619,W,0.0,62.8,070220,,,A*2F
$GPGGA,021611.00,3725.5838702,N,12205.6185946,W,1,15,0.8,6.80,M,-32.64,M,,*52
$GPRMC,021611.00,A,3725.584,N,12205.619,W,0.0,62.8,070220,,,A*2E
$GPGGA,021612.00,3725.5838700,N,12205.6185944,W,1,15,0.8,6.80,M,-32.64,M,,*51
$GPRMC,021612.00,A,3725.584,N,12205.619,W,0.0,62.8,070220,,,A*2D
$GPGGA,021613.00,3725.5838698,N,12205.6185941,W,1,15,0.8,6.80,M,-32.64,M,,*55
$GPRMC,021613.00,A,3725.584,N,12205.619,W,0.0,62.8,070220,,,A*2C
$GPGGA,021614.00,3725.5838699,N,12205.6185938,W,1,15,0.8,6.80,M,-32.64,M,,*5D
$GPRMC,021614.00,A,3725.584,N,12205.619,W,0.0,62.8,070220,,,A*52
$GPGGA,021615.00,3725.5838702,N,12205.6185937,W,1,15,0.8,6.80,M,-32.64,M,,*50
$GPRMC,021615.00,A,3725.584,N,12205.619,W,0.0,62.8,070220,,,A*2A
$GPGGA,021616.00,3725.5838708,N,12205.6185931,W,1,15,0.8,6.80,M,-32.64,M,,*5F
$GPRMC,021616.00,A,3725.584,N,12205.619,W,0.0,62.8,070220,,,A*50
$GPGGA,021617.00,3725.5838721,N,12205.6185924,W,1,15,0.8,6.80,M,-32.64,M,,*51
$GPRMC,021617.00,A,3725.584,N,12205.619,W,0.0,62.8,070220,,,A*28
$GPGGA,021618.00,3725.5838819,N,12205.6185712,W,1,15,0.8,6.79,M,-32.64,M,,*57
$GPRMC,021618.00,A,3725.584,N,12205.619,W,0.3,62.8,070220,,,A*24
$GPGGA,021619.00,3725.5839616,N,12205.6183626,W,1,15,0.8,6.80,M,-32.64,M,,*50
$GPRMC,021619.00,A,3725.584,N,12205.618,W,1.1,62.7,070220,,,A*28
$GPGGA,021620.00,3725.5842023,N,12205.6177379,W,1,15,0.8,6.80,M,-32.64,M,,*52
$GPRMC,021620.00,A,3725.584,N,12205.618,W,3.1,61.8,070220,,,A*2C
$GPGGA,021621.00,3725.5847296,N,12205.6164372,W,1,15,0.8,6.80,M,-32.64,M,,*53
$GPRMC,021621.00,A,3725.585,N,12205.616,W,5.2,60.1,070220,,,A*2F
$GPGGA,021622.00,3725.5855274,N,12205.6146229,W,1,15,0.8,6.81,M,-32.64,M,,*51
$GPRMC,021622.00,A,3725.586,N,12205.615,W,6.5,57.7,070220,,,A*2A
$GPGGA,021623.00,3725.5865487,N,12205.6125307,W,1,15,0.8,6.84,M,-32.64,M,,*54
$GPRMC,021623.00,A,3725.587,N,12205.613,W,7.5,54.9,070220,,,A*20
$GPGGA,021624.00,3725.5878010,N,12205.6102985,W,1,15,0.8,6.87,M,-32.64,M,,*53
$GPRMC,021624.00,A,3725.588,N,12205.610,W,8.0,50.2,070220,,,A*2E
$GPGGA,021625.00,3725.5892851,N,12205.6082513,W,1,15,0.8,6.88,M,-32.64,M,,*5E
$GPRMC,021625.00,A,3725.589,N,12205.608,W,7.9,41.1,070220,,,A*59
$GPGGA,021626.00,3725.5910368,N,12205.6066324,W,1,14,1.0,6.88,M,-32.64,M,,*57
$GPRMC,021626.00,A,3725.591,N,12205.607,W,7.9,29.4,070220,,,A*2C
$GPGGA,021627.00,3725.5931973,N,12205.6055021,W,1,14,1.0,6.91,M,-32.64,M,,*5B
$GPRMC,021627.00,A,3725.593,N,12205.606,W,8.8,14.3,070220,,,A*50
$GPGGA,021628.00,3725.5956036,N,12205.6052090,W,1,14,1.0,6.94,M,-32.64,M,,*55
$GPRMC,021628.00,A,3725.596,N,12205.605,W,8.4,355.8,070220,,,A*11
$GPGGA,021629.00,3725.5976514,N,12205.6059138,W,1,14,1.0,6.92,M,-32.64,M,,*5D
$GPRMC,021629.00,A,3725.598,N,12205.606,W,7.0,333.8,070220,,,A*6F
$GPGGA,021630.00,3725.5990659,N,12205.6075637,W,1,14,1.0,6.86,M,-32.64,M,,*54
$GPRMC,021630.00,A,3725.599,N,12205.608,W,7.2,304.9,070220,,,A*16
$GPGGA,021631.00,3725.5996255,N,12205.6101505,W,1,14,1.0,6.78,M,-32.64,M,,*5A
$GPRMC,021631.00,A,3725.600,N,12205.610,W,8.5,272.1,070220,,,A*66
$GPGGA,021632.00,3725.5990254,N,12205.6132955,W,1,14,1.0,6.73,M,-32.64,M,,*5C
$GPRMC,021632.00,A,3725.599,N,12205.613,W,10.3,246.8,070220,,,A*50
$GPGGA,021633.00,3725.5977364,N,12205.6168538,W,1,14,1.0,6.71,M,-32.64,M,,*5C
$GPRMC,021633.00,A,3725.598,N,12205.617,W,12.1,242.4,070220,,,A*5C
$GPGGA,021634.00,3725.5961866,N,12205.6209560,W,1,14,1.0,6.65,M,-32.64,M,,*59
$GPRMC,021634.00,A,3725.596,N,12205.621,W,13.9,241.7,070220,,,A*26
$GPGGA,021635.00,3725.5944750,N,12205.6254295,W,1,14,1.0,6.59,M,-32.64,M,,*5F
$GPRMC,021635.00,A,3725.594,N,12205.625,W,14.4,241.6,070220,,,A*53
$GPGGA,021636.00,3725.5927792,N,12205.6299752,W,1,14,1.0,6.53,M,-32.64,M,,*52
$GPRMC,021636.00,A,3725.593,N,12205.630,W,14.2,242.6,070220,,,A*2F
$GPGGA,021637.00,3725.5913454,N,12205.6342298,W,1,15,0.8,6.45,M,-32.64,M,,*56
$GPRMC,021637.00,A,3725.591,N,12205.634,W,12.2,245.3,070220,,,A*2C
$GPGGA,021638.00,3725.5902805,N,12205.6377528,W,1,15,0.8,6.43,M,-32.64,M,,*5D
$GPRMC,021638.00,A,3725.590,N,12205.638,W,9.5,246.4,070220,,,A*6E
$GPGGA,021639.00,3725.5894610,N,12205.6404805,W,1,15,0.8,6.44,M,-32.64,M,,*5E
$GPRMC,021639.00,A,3725.589,N,12205.640,W,7.0,246.2,070220,,,A*67
$GPGGA,021640.00,3725.5889308,N,12205.6422363,W,1,14,1.0,6.42,M,-32.64,M,,*51
$GPRMC,021640.00,A,3725.589,N,12205.642,W,3.7,245.8,070220,,,A*1A
$GPGGA,021641.00,3725.5885735,N,12205.6434454,W,1,14,1.0,6.38,M,-32.64,M,,*5F
$GPRMC,021641.00,A,3725.589,N,12205.643,W,3.9,246.3,070220,,,A*65
$GPGGA,021642.00,3725.5882820,N,12205.6449706,W,1,14,1.0,6.32,M,-32.64,M,,*54
$GPRMC,021642.00,A,3725.588,N,12205.645,W,5.3,255.6,070220,,,A*13
$GPGGA,021643.00,3725.5884138,N,12205.6472094,W,1,14,1.0,6.21,M,-32.64,M,,*55
$GPRMC,021643.00,A,3725.588,N,12205.647,W,7.6,278.2,070220,,,A*1C
$GPGGA,021644.00,3725.5894995,N,12205.6495937,W,1,14,1.0,6.10,M,-32.64,M,,*57
$GPRMC,021644.00,A,3725.589,N,12205.650,W,8.1,304.4,070220,,,A*18
$GPGGA,021645.00,3725.5913285,N,12205.6512527,W,1,14,1.0,6.03,M,-32.64,M,,*53
$GPRMC,021645.00,A,3725.591,N,12205.651,W,8.1,328.9,070220,,,A*12
$GPGGA,021646.00,3725.5934884,N,12205.6517760,W,1,14,1.0,6.04,M,-32.64,M,,*5D
$GPRMC,021646.00,A,3725.593,N,12205.652,W,7.8,354.6,070220,,,A*6B
$GPGGA,021647.00,3725.5954832,N,12205.6510579,W,1,14,1.0,6.09,M,-32.64,M,,*57
$GPRMC,021647.00,A,3725.595,N,12205.651,W,7.5,20.9,070220,,,A*24
$GPGGA,021648.00,3725.5971903,N,12205.6491610,W,1,14,1.0,6.15,M,-32.64,M,,*55
$GPRMC,021648.00,A,3725.597,N,12205.649,W,9.1,46.7,070220,,,A*24
$GPGGA,021649.00,3725.5985245,N,12205.6461226,W,1,14,1.0,6.24,M,-32.64,M,,*5A
$GPRMC,021649.00,A,3725.599,N,12205.646,W,10.7,61.0,070220,,,A*63
$GPGGA,021650.00,3725.5998385,N,12205.6424887,W,1,15,0.8,6.37,M,-32.64,M,,*59
$GPRMC,021650.00,A,3725.600,N,12205.642,W,12.3,63.0,070220,,,A*13
$GPGGA,021651.00,3725.6012708,N,12205.6383203,W,1,15,0.8,6.45,M,-32.64,M,,*58
$GPRMC,021651.00,A,3725.601,N,12205.638,W,13.7,63.8,070220,,,A*13
$GPGGA,021652.00,3725.6027908,N,12205.6337703,W,1,15,0.8,6.53,M,-32.64,M,,*5E
$GPRMC,021652.00,A,3725.603,N,12205.634,W,14.5,64.4,070220,,,A*6B
$GPGGA,021653.00,3725.6043232,N,12205.6289971,W,1,15,0.8,6.63,M,-32.64,M,,*53
$GPRMC,021653.00,A,3725.604,N,12205.629,W,14.9,65.3,070220,,,A*10
$GPGGA,021654.00,3725.6058429,N,12205.6242134,W,1,15,0.8,6.70,M,-32.64,M,,*5E
$GPRMC,021654.00,A,3725.606,N,12205.624,W,14.5,64.6,070220,,,A*6B
$GPGGA,021655.00,3725.6073524,N,12205.6197584,W,1,15,0.8,6.77,M,-32.64,M,,*59
$GPRMC,021655.00,A,3725.607,N,12205.620,W,13.2,63.2,070220,,,A*17
$GPGGA,021656.00,3725.6087304,N,12205.6158697,W,1,15,0.8,6.83,M,-32.64,M,,*5C
$GPRMC,021656.00,A,3725.609,N,12205.616,W,11.0,63.1,070220,,,A*63
$GPGGA,021657.00,3725.6096709,N,12205.6126076,W,1,15,0.8,6.86,M,-32.64,M,,*51
$GPRMC,021657.00,A,3725.610,N,12205.613,W,9.2,71.0,070220,,,A*29
$GPGGA,021658.00,3725.6097820,N,12205.6096526,W,1,15,0.8,6.90,M,-32.64,M,,*56
$GPRMC,021658.00,A,3725.610,N,12205.610,W,8.1,93.3,070220,,,A*28
$GPGGA,021659.00,3725.6087997,N,12205.6072603,W,1,15,0.8,6.95,M,-32.64,M,,*50
$GPRMC,021659.00,A,3725.609,N,12205.607,W,7.7,124.4,070220,,,A*14
$GPGGA,021700.00,3725.6069240,N,12205.6057402,W,1,15,0.8,6.96,M,-32.64,M,,*5B
$GPRMC,021700.00,A,3725.607,N,12205.606,W,8.8,152.2,070220,,,A*68
$GPGGA,021701.00,3725.6043981,N,12205.6052387,W,1,15,0.8,6.93,M,-32.64,M,,*5E
$GPRMC,021701.00,A,3725.604,N,12205.605,W,9.5,176.4,070220,,,A*67
$GPGGA,021702.00,3725.6019450,N,12205.6061943,W,1,15,0.8,6.90,M,-32.64,M,,*52
$GPRMC,021702.00,A,3725.602,N,12205.606,W,9.2,204.5,070220,,,A*1A
$GPGGA,021703.00,3725.6001280,N,12205.6084403,W,1,15,0.8,6.85,M,-32.64,M,,*57
$GPRMC,021703.00,A,3725.600,N,12205.608,W,9.3,229.8,070220,,,A*14
$GPGGA,021704.00,3725.5988833,N,12205.6114701,W,1,14,1.0,6.79,M,-32.64,M,,*5B
$GPRMC,021704.00,A,3725.599,N,12205.611,W,10.4,243.5,070220,,,A*5F
$GPGGA,021705.00,3725.5977437,N,12205.6150559,W,1,14,1.0,6.75,M,-32.64,M,,*51
$GPRMC,021705.00,A,3725.598,N,12205.615,W,11.7,245.8,070220,,,A*2B
$GPGGA,021706.00,3725.5965497,N,12205.6190844,W,1,14,1.0,6.70,M,-32.64,M,,*53
$GPRMC,021706.00,A,3725.597,N,12205.619,W,12.9,246.9,070220,,,A*24
$GPGGA,021707.00,3725.5952709,N,12205.6234936,W,1,14,1.0,6.61,M,-32.64,M,,*5B
$GPRMC,021707.00,A,3725.595,N,12205.623,W,13.8,246.9,070220,,,A*57
$GPGGA,021708.00,3725.5939089,N,12205.6280247,W,1,14,1.0,6.55,M,-32.64,M,,*53
$GPRMC,021708.00,A,3725.594,N,12205.628,W,13.9,245.9,070220,,,A*29
$GPGGA,021709.00,3725.5925397,N,12205.6323577,W,1,14,1.0,6.46,M,-32.64,M,,*5D
$GPRMC,021709.00,A,3725.593,N,12205.632,W,12.6,245.0,070220,,,A*5A
$GPGGA,021710.00,3725.5913326,N,12205.6360708,W,1,14,1.0,6.40,M,-32.64,M,,*51
$GPRMC,021710.00,A,3725.591,N,12205.636,W,10.3,245.0,070220,,,A*2A
$GPGGA,021711.00,3725.5903881,N,12205.6390199,W,1,14,1.0,6.41,M,-32.64,M,,*57
$GPRMC,021711.00,A,3725.590,N,12205.639,W,7.9,245.4,070220,,,A*1D
$GPGGA,021712.00,3725.5897103,N,12205.6411534,W,1,14,1.0,6.41,M,-32.64,M,,*56
$GPRMC,021712.00,A,3725.590,N,12205.641,W,5.3,245.6,070220,,,A*1B
$GPGGA,021713.00,3725.5892597,N,12205.6425877,W,1,14,1.0,6.39,M,-32.64,M,,*59
$GPRMC,021713.00,A,3725.589,N,12205.643,W,4.3,245.5,070220,,,A*12
$GPGGA,021714.00,3725.5886868,N,12205.6440876,W,1,14,1.0,6.34,M,-32.64,M,,*59
$GPRMC,021714.00,A,3725.589,N,12205.644,W,5.7,239.3,070220,,,A*1A
$GPGGA,021715.00,3725.5875095,N,12205.6458680,W,1,14,1.0,6.27,M,-32.64,M,,*52
$GPRMC,021715.00,A,3725.588,N,12205.646,W,7.5,221.3,070220,,,A*11
$GPGGA,021716.00,3725.5855410,N,12205.6470423,W,1,14,1.0,6.20,M,-32.64,M,,*5C
$GPRMC,021716.00,A,3725.586,N,12205.647,W,8.1,193.2,070220,,,A*62
$GPGGA,021717.00,3725.5832975,N,12205.6469210,W,1,14,1.0,6.17,M,-32.64,M,,*58
$GPRMC,021717.00,A,3725.583,N,12205.647,W,8.2,166.5,070220,,,A*17
$GPGGA,021718.00,3725.5812000,N,12205.6458741,W,1,14,1.0,6.17,M,-32.64,M,,*5D
$GPRMC,021718.00,A,3725.581,N,12205.646,W,7.9,150.3,070220,,,A*65
$GPGGA,021719.00,3725.5796762,N,12205.6440729,W,1,13,1.1,6.25,M,-32.64,M,,*5C
$GPRMC,021719.00,A,3725.580,N,12205.644,W,7.3,125.8,070220,,,A*62
$GPGGA,021720.00,3725.5788981,N,12205.6414827,W,1,13,1.1,6.34,M,-32.64,M,,*5A
$GPRMC,021720.00,A,3725.579,N,12205.641,W,9.0,99.9,070220,,,A*55
$GPGGA,021721.00,3725.5789640,N,12205.6382225,W,1,13,1.1,6.49,M,-32.64,M,,*52
$GPRMC,021721.00,A,3725.579,N,12205.638,W,9.6,80.0,070220,,,A*26
$GPGGA,021722.00,3725.5795697,N,12205.6349481,W,1,13,1.1,6.65,M,-32.64,M,,*57
$GPRMC,021722.00,A,3725.580,N,12205.635,W,9.6,72.1,070220,,,A*22
$GPGGA,021723.00,3725.5803817,N,12205.6318057,W,1,13,1.1,6.70,M,-32.64,M,,*5F
$GPRMC,021723.00,A,3725.580,N,12205.632,W,9.6,67.8,070220,,,A*50
$GPGGA,021724.00,3725.5814563,N,12205.6284040,W,1,13,1.1,6.70,M,-32.64,M,,*52
$GPRMC,021724.00,A,3725.581,N,12205.628,W,11.4,64.2,070220,,,A*16
$GPGGA,021725.00,3725.5828535,N,12205.6245779,W,1,15,0.8,6.74,M,-32.64,M,,*55
$GPRMC,021725.00,A,3725.583,N,12205.625,W,12.5,61.9,070220,,,A*14
$GPGGA,021726.00,3725.5843647,N,12205.6205843,W,1,15,0.8,6.81,M,-32.64,M,,*55
$GPRMC,021726.00,A,3725.584,N,12205.621,W,12.8,61.6,070220,,,A*16
$GPGGA,021727.00,3725.5859092,N,12205.6165211,W,1,15,0.8,6.84,M,-32.64,M,,*5C
$GPRMC,021727.00,A,3725.586,N,12205.617,W,13.0,61.4,070220,,,A*64
$GPGGA,021728.00,3725.5874720,N,12205.6124672,W,1,15,0.8,6.86,M,-32.64,M,,*54
$GPRMC,021728.00,A,3725.587,N,12205.612,W,12.7,61.0,070220,,,A*12
$GPGGA,021729.00,3725.5889304,N,12205.6088250,W,1,14,1.0,6.90,M,-32.64,M,,*59
$GPRMC,021729.00,A,3725.589,N,12205.609,W,10.5,58.7,070220,,,A*1A
$GPGGA,021730.00,3725.5905154,N,12205.6062880,W,1,14,1.0,6.93,M,-32.64,M,,*53
$GPRMC,021730.00,A,3725.591,N,12205.606,W,8.6,40.3,070220,,,A*23
$GPGGA,021731.00,3725.5925819,N,12205.6049561,W,1,14,1.0,6.95,M,-32.64,M,,*5D
$GPRMC,021731.00,A,3725.593,N,12205.605,W,8.3,16.0,070220,,,A*5F
$GPGGA,021732.00,3725.5948448,N,12205.6046228,W,1,14,1.0,6.97,M,-32.64,M,,*5A
$GPRMC,021732.00,A,3725.595,N,12205.605,W,8.2,359.3,070220,,,A*62
$GPGGA,021733.00,3725.5970657,N,12205.6048655,W,1,14,1.0,6.97,M,-32.64,M,,*5C
$GPRMC,021733.00,A,3725.597,N,12205.605,W,7.9,345.9,070220,,,A*66
$GPGGA,021734.00,3725.5988932,N,12205.6062468,W,1,14,1.0,6.90,M,-32.64,M,,*53
$GPRMC,021734.00,A,3725.599,N,12205.606,W,7.7,314.2,070220,,,A*12
$GPGGA,021735.00,3725.5996716,N,12205.6087232,W,1,14,1.0,6.83,M,-32.64,M,,*55
$GPRMC,021735.00,A,3725.600,N,12205.609,W,8.0,276.8,070220,,,A*18
$GPGGA,021736.00,3725.5992342,N,12205.6117500,W,1,14,1.0,6.76,M,-32.64,M,,*53
$GPRMC,021736.00,A,3725.599,N,12205.612,W,9.8,249.4,070220,,,A*1B
$GPGGA,021737.00,3725.5980282,N,12205.6151405,W,1,14,1.0,6.74,M,-32.64,M,,*58
$GPRMC,021737.00,A,3725.598,N,12205.615,W,11.4,242.4,070220,,,A*22
$GPGGA,021738.00,3725.5965868,N,12205.6189658,W,1,14,1.0,6.70,M,-32.64,M,,*59
$GPRMC,021738.00,A,3725.597,N,12205.619,W,12.8,242.4,070220,,,A*21
$GPGGA,021739.00,3725.5951080,N,12205.6232161,W,1,14,1.0,6.62,M,-32.64,M,,*5C
$GPRMC,021739.00,A,3725.595,N,12205.623,W,13.7,244.4,070220,,,A*5C
$GPGGA,021740.00,3725.5936719,N,12205.6276810,W,1,14,1.0,6.57,M,-32.64,M,,*5D
$GPRMC,021740.00,A,3725.594,N,12205.628,W,13.9,245.6,070220,,,A*53
$GPGGA,021741.00,3725.5922674,N,12205.6321598,W,1,14,1.0,6.48,M,-32.64,M,,*53
$GPRMC,021741.00,A,3725.592,N,12205.632,W,13.4,245.4,070220,,,A*29
$GPGGA,021742.00,3725.5909586,N,12205.6361681,W,1,14,1.0,6.42,M,-32.64,M,,*52
$GPRMC,021742.00,A,3725.591,N,12205.636,W,11.2,244.4,070220,,,A*28
$GPGGA,021743.00,3725.5898942,N,12205.6392898,W,1,15,0.8,6.43,M,-32.64,M,,*5D
$GPRMC,021743.00,A,3725.590,N,12205.639,W,8.3,243.5,070220,,,A*61
$GPGGA,021744.00,3725.5890972,N,12205.6414979,W,1,14,1.0,6.43,M,-32.64,M,,*5E
$GPRMC,021744.00,A,3725.589,N,12205.641,W,5.7,242.0,070220,,,A*6E
$GPGGA,021745.00,3725.5885335,N,12205.6430093,W,1,14,1.0,6.40,M,-32.64,M,,*5A
$GPRMC,021745.00,A,3725.589,N,12205.643,W,4.5,241.4,070220,,,A*69
$GPGGA,021746.00,3725.5880542,N,12205.6446441,W,1,14,1.0,6.34,M,-32.64,M,,*53
$GPRMC,021746.00,A,3725.588,N,12205.645,W,5.7,249.3,070220,,,A*1A
$GPGGA,021747.00,3725.5880404,N,12205.6468638,W,1,14,1.0,6.24,M,-32.64,M,,*50
$GPRMC,021747.00,A,3725.588,N,12205.647,W,6.9,274.5,070220,,,A*1C
$GPGGA,021748.00,3725.5889248,N,12205.6488993,W,1,14,1.0,6.15,M,-32.64,M,,*5A
$GPRMC,021748.00,A,3725.589,N,12205.649,W,6.2,303.3,070220,,,A*6B
$GPGGA,021749.00,3725.5901282,N,12205.6502015,W,1,14,1.0,6.09,M,-32.64,M,,*55
$GPRMC,021749.00,A,3725.590,N,12205.650,W,5.6,318.0,070220,,,A*1F
$GPGGA,021750.00,3725.5914441,N,12205.6512361,W,1,14,1.0,6.04,M,-32.64,M,,*5C
$GPRMC,021750.00,A,3725.591,N,12205.651,W,5.6,326.6,070220,,,A*63
$GPGGA,021751.00,3725.5928610,N,12205.6518407,W,1,14,1.0,6.05,M,-32.64,M,,*58
$GPRMC,021751.00,A,3725.593,N,12205.652,W,5.2,342.6,070220,,,A*1A
$GPGGA,021752.00,3725.5942871,N,12205.6516784,W,1,14,1.0,6.07,M,-32.64,M,,*5A
$GPRMC,021752.00,A,3725.594,N,12205.652,W,5.4,7.7,070220,,,A*60
$GPGGA,021753.00,3725.5956724,N,12205.6505839,W,1,14,1.0,6.13,M,-32.64,M,,*5F
$GPRMC,021753.00,A,3725.596,N,12205.651,W,6.5,36.0,070220,,,A*55
$GPGGA,021754.00,3725.5968660,N,12205.6485731,W,1,14,1.0,6.20,M,-32.64,M,,*5A
$GPRMC,021754.00,A,3725.597,N,12205.649,W,7.8,54.4,070220,,,A*54
$GPGGA,021755.00,3725.5980068,N,12205.6459687,W,1,14,1.0,6.27,M,-32.64,M,,*59
$GPRMC,021755.00,A,3725.598,N,12205.646,W,9.2,58.6,070220,,,A*24
$GPGGA,021756.00,3725.5992468,N,12205.6428720,W,1,14,1.0,6.36,M,-32.64,M,,*57
$GPRMC,021756.00,A,3725.599,N,12205.643,W,10.6,61.0,070220,,,A*13
$GPGGA,021757.00,3725.6005340,N,12205.6392648,W,1,14,1.0,6.43,M,-32.64,M,,*54
$GPRMC,021757.00,A,3725.601,N,12205.639,W,12.0,63.7,070220,,,A*1C
$GPGGA,021758.00,3725.6018796,N,12205.6351597,W,1,14,1.0,6.49,M,-32.64,M,,*5C
$GPRMC,021758.00,A,3725.602,N,12205.635,W,13.3,64.9,070220,,,A*68
$GPGGA,021759.00,3725.6032608,N,12205.6307774,W,1,14,1.0,6.57,M,-32.64,M,,*50
$GPRMC,021759.00,A,3725.603,N,12205.631,W,13.5,65.5,070220,,,A*18
$GPGGA,021800.00,3725.6046234,N,12205.6264189,W,1,14,1.0,6.64,M,-32.64,M,,*5B
$GPRMC,021800.00,A,3725.605,N,12205.626,W,13.3,64.9,070220,,,A*69
$GPGGA,021801.00,3725.6060468,N,12205.6221653,W,1,14,1.0,6.71,M,-32.64,M,,*54
$GPRMC,021801.00,A,3725.606,N,12205.622,W,13.2,63.3,070220,,,A*1A
$GPGGA,021802.00,3725.6075683,N,12205.6180147,W,1,14,1.0,6.76,M,-32.64,M,,*59
$GPRMC,021802.00,A,3725.608,N,12205.618,W,12.9,61.2,070220,,,A*17
$GPGGA,021803.00,3725.6090397,N,12205.6142727,W,1,14,1.0,6.81,M,-32.64,M,,*55
$GPRMC,021803.00,A,3725.609,N,12205.614,W,10.7,60.8,070220,,,A*1C
$GPGGA,021804.00,3725.6099726,N,12205.6112596,W,1,14,1.0,6.84,M,-32.64,M,,*5D
$GPRMC,021804.00,A,3725.610,N,12205.611,W,8.0,70.9,070220,,,A*51
$GPGGA,021805.00,3725.6098695,N,12205.6086880,W,1,14,1.0,6.88,M,-32.64,M,,*5E
$GPRMC,021805.00,A,3725.610,N,12205.609,W,7.2,100.2,070220,,,A*6B
$GPGGA,021806.00,3725.6087645,N,12205.6067237,W,1,14,1.0,6.92,M,-32.64,M,,*5C
$GPRMC,021806.00,A,3725.609,N,12205.607,W,6.9,130.8,070220,,,A*69
$GPGGA,021807.00,3725.6069524,N,12205.6055167,W,1,14,1.0,6.92,M,-32.64,M,,*5E
$GPRMC,021807.00,A,3725.607,N,12205.606,W,8.1,155.0,070220,,,A*6E
$GPGGA,021808.00,3725.6046449,N,12205.6051294,W,1,14,1.0,6.90,M,-32.64,M,,*5F
$GPRMC,021808.00,A,3725.605,N,12205.605,W,8.6,177.4,070220,,,A*61
$GPGGA,021809.00,3725.6024049,N,12205.6061237,W,1,14,1.0,6.86,M,-32.64,M,,*53
$GPRMC,021809.00,A,3725.602,N,12205.606,W,8.7,206.4,070220,,,A*19
$GPGGA,021810.00,3725.6006564,N,12205.6083584,W,1,14,0.9,6.83,M,-32.64,M,,*5F
$GPRMC,021810.00,A,3725.601,N,12205.608,W,9.5,229.0,070220,,,A*6F
$GPGGA,021811.00,3725.5992030,N,12205.6114152,W,1,14,0.9,6.78,M,-32.64,M,,*59
$GPRMC,021811.00,A,3725.599,N,12205.611,W,11.0,238.3,070220,,,A*22
$GPGGA,021812.00,3725.5977880,N,12205.6151035,W,1,14,0.9,6.75,M,-32.64,M,,*5E
$GPRMC,021812.00,A,3725.598,N,12205.615,W,12.5,243.2,070220,,,A*54
$GPGGA,021813.00,3725.5964016,N,12205.6193666,W,1,14,1.0,6.70,M,-32.64,M,,*59
$GPRMC,021813.00,A,3725.596,N,12205.619,W,14.0,245.3,070220,,,A*28
$GPGGA,021814.00,3725.5949476,N,12205.6240484,W,1,14,1.0,6.62,M,-32.64,M,,*53
$GPRMC,021814.00,A,3725.595,N,12205.624,W,14.7,245.8,070220,,,A*2E
$GPGGA,021815.00,3725.5934840,N,12205.6288290,W,1,14,1.0,6.55,M,-32.64,M,,*52
$GPRMC,021815.00,A,3725.593,N,12205.629,W,14.6,246.1,070220,,,A*2F
$GPGGA,021816.00,3725.5921049,N,12205.6333704,W,1,14,1.0,6.46,M,-32.64,M,,*5F
$GPRMC,021816.00,A,3725.592,N,12205.633,W,13.0,246.2,070220,,,A*5D
$GPGGA,021817.00,3725.5909554,N,12205.6371558,W,1,14,0.9,6.42,M,-32.64,M,,*5C
$GPRMC,021817.00,A,3725.591,N,12205.637,W,10.1,246.1,070220,,,A*5C
$GPGGA,021818.00,3725.5900914,N,12205.6399235,W,1,14,0.9,6.43,M,-32.64,M,,*59
$GPRMC,021818.00,A,3725.590,N,12205.640,W,6.9,245.6,070220,,,A*16
$GPGGA,021819.00,3725.5894784,N,12205.6418512,W,1,14,0.9,6.43,M,-32.64,M,,*5F
$GPRMC,021819.00,A,3725.589,N,12205.642,W,5.2,245.3,070220,,,A*69
$GPGGA,021820.00,3725.5890068,N,12205.6433208,W,1,14,0.9,6.39,M,-32.64,M,,*5C
$GPRMC,021820.00,A,3725.589,N,12205.643,W,4.4,245.1,070220,,,A*61
$GPGGA,021821.00,3725.5884456,N,12205.6447642,W,1,14,0.9,6.33,M,-32.64,M,,*52
$GPRMC,021821.00,A,3725.588,N,12205.645,W,5.1,238.6,070220,,,A*11
$GPGGA,021822.00,3725.5873095,N,12205.6462662,W,1,14,0.9,6.26,M,-32.64,M,,*53
$GPRMC,021822.00,A,3725.587,N,12205.646,W,6.6,216.9,070220,,,A*19
$GPGGA,021823.00,3725.5855536,N,12205.6470697,W,1,14,0.9,6.21,M,-32.64,M,,*54
$GPRMC,021823.00,A,3725.586,N,12205.647,W,7.0,189.1,070220,,,A*12
$GPGGA,021824.00,3725.5835649,N,12205.6467609,W,1,14,0.9,6.19,M,-32.64,M,,*54
$GPRMC,021824.00,A,3725.584,N,12205.647,W,7.5,164.3,070220,,,A*13
$GPGGA,021825.00,3725.5816249,N,12205.6458388,W,1,13,1.0,6.18,M,-32.64,M,,*5E
$GPRMC,021825.00,A,3725.582,N,12205.646,W,7.3,153.7,070220,,,A*68
$GPGGA,021826.00,3725.5800150,N,12205.6444548,W,1,13,1.0,6.23,M,-32.64,M,,*5E
$GPRMC,021826.00,A,3725.580,N,12205.644,W,6.7,136.4,070220,,,A*6E
$GPGGA,021827.00,3725.5790446,N,12205.6424564,W,1,13,1.0,6.29,M,-32.64,M,,*59
$GPRMC,021827.00,A,3725.579,N,12205.642,W,7.3,111.0,070220,,,A*10
$GPGGA,021828.00,3725.5787486,N,12205.6396710,W,1,13,1.0,6.38,M,-32.64,M,,*53
$GPRMC,021828.00,A,3725.579,N,12205.640,W,8.8,89.4,070220,,,A*2D
$GPGGA,021829.00,3725.5788752,N,12205.6364370,W,1,13,1.0,6.57,M,-32.64,M,,*51
$GPRMC,021829.00,A,3725.579,N,12205.636,W,9.6,83.9,070220,,,A*25
$GPGGA,021830.00,3725.5790794,N,12205.6331083,W,1,13,1.0,6.67,M,-32.64,M,,*56
$GPRMC,021830.00,A,3725.579,N,12205.633,W,9.5,81.7,070220,,,A*27
$GPGGA,021831.00,3725.5795626,N,12205.6298817,W,1,14,1.0,6.70,M,-32.64,M,,*5C
$GPRMC,021831.00,A,3725.580,N,12205.630,W,9.4,72.4,070220,,,A*52
$GPGGA,021832.00,3725.5804761,N,12205.6269588,W,1,14,1.0,6.67,M,-32.64,M,,*59
$GPRMC,021832.00,A,3725.580,N,12205.627,W,8.0,63.0,070220,,,A*29
$GPGGA,021833.00,3725.5812844,N,12205.6248410,W,1,14,1.0,6.70,M,-32.64,M,,*52
$GPRMC,021833.00,A,3725.581,N,12205.625,W,6.0,61.5,070220,,,A*22
$GPGGA,021834.00,3725.5818902,N,12205.6232876,W,1,14,1.0,6.73,M,-32.64,M,,*5E
$GPRMC,021834.00,A,3725.582,N,12205.623,W,3.6,61.3,070220,,,A*5E
$GPGGA,021835.00,3725.5821216,N,12205.6226976,W,1,14,1.0,6.74,M,-32.64,M,,*58
$GPRMC,021835.00,A,3725.582,N,12205.623,W,0.2,61.4,070220,,,A*24
$GPGGA,021836.00,3725.5821211,N,12205.6227059,W,1,14,1.0,6.75,M,-32.64,M,,*58
$GPRMC,021836.00,A,3725.582,N,12205.623,W,0.0,61.4,070220,,,A*25
$GPGGA,021837.00,3725.5821107,N,12205.6227348,W,1,14,1.0,6.74,M,-32.64,M,,*5F
$GPRMC,021837.00,A,3725.582,N,12205.623,W,0.1,61.4,070220,,,A*5C
$GPGGA,021838.00,3725.5821115,N,12205.6227292,W,1,14,1.0,6.75,M,-32.64,M,,*54
$GPRMC,021838.00,A,3725.582,N,12205.623,W,0.0,61.4,070220,,,A*2B
$GPGGA,021839.00,3725.5821082,N,12205.6227325,W,1,14,1.0,6.75,M,-32.64,M,,*57
$GPRMC,021839.00,A,3725.582,N,12205.623,W,0.0,61.4,070220,,,A*2A
$GPGGA,021840.00,3725.5821063,N,12205.6227333,W,1,15,0.8,6.75,M,-32.64,M,,*59
$GPRMC,021840.00,A,3725.582,N,12205.623,W,0.0,61.4,070220,,,A*24
$GPGGA,021841.00,3725.5821057,N,12205.6227334,W,1,15,0.8,6.75,M,-32.64,M,,*58
$GPRMC,021841.00,A,3725.582,N,12205.623,W,0.0,61.4,070220,,,A*25
$GPGGA,021842.00,3725.5821056,N,12205.6227327,W,1,14,1.0,6.75,M,-32.64,M,,*50
$GPRMC,021842.00,A,3725.582,N,12205.623,W,0.0,61.4,070220,,,A*26
$GPGGA,021843.00,3725.5821056,N,12205.6227323,W,1,15,0.8,6.75,M,-32.64,M,,*5D
$GPRMC,021843.00,A,3725.582,N,12205.623,W,0.0,61.4,070220,,,A*5E
$GPGGA,021844.00,3725.5821056,N,12205.6227322,W,1,14,0.9,6.75,M,-32.64,M,,*5B
$GPRMC,021844.00,A,3725.582,N,12205.623,W,0.0,61.4,070220,,,A*59
$GPGGA,021845.00,3725.5821056,N,12205.6227322,W,1,14,0.9,6.75,M,-32.64,M,,*5A
$GPRMC,021845.00,A,3725.582,N,12205.623,W,0.0,61.4,070220,,,A*5A
$GPGGA,021846.00,3725.5821056,N,12205.6227322,W,1,14,0.9,6.75,M,-32.64,M,,*59
$GPRMC,021846.00,A,3725.582,N,12205.623,W,0.0,61.4,070220,,,A*22
$GPGGA,021847.00,3725.5821056,N,12205.6227322,W,1,14,0.9,6.75,M,-32.64,M,,*58
$GPRMC,021847.00,A,3725.582,N,12205.623,W,0.0,61.4,070220,,,A*23
$GPGGA,021848.00,3725.5821056,N,12205.6227322,W,1,14,0.9,6.75,M,-32.64,M,,*57
$GPRMC,021848.00,A,3725.582,N,12205.623,W,0.0,61.3,070220,,,A*2B
$GPGGA,021849.00,3725.5821056,N,12205.6227322,W,1,14,0.9,6.75,M,-32.64,M,,*56
$GPRMC,021849.00,A,3725.582,N,12205.623,W,0.0,61.3,070220,,,A*2A
$GPGGA,021850.00,3725.5821056,N,12205.6227322,W,1,14,0.9,6.75,M,-32.64,M,,*5E
$GPRMC,021850.00,A,3725.582,N,12205.623,W,0.0,61.4,070220,,,A*5E
$GPGGA,021851.00,3725.5821056,N,12205.6227322,W,1,14,0.9,6.75,M,-32.64,M,,*5F
$GPRMC,021851.00,A,3725.582,N,12205.623,W,0.0,61.3,070220,,,A*5A
$GPGGA,021852.00,3725.5821056,N,12205.6227322,W,1,14,0.9,6.75,M,-32.64,M,,*5C
$GPRMC,021852.00,A,3725.582,N,12205.623,W,0.0,61.3,070220,,,A*5F
$GPGGA,021853.00,3725.5821056,N,12205.6227322,W,1,14,0.9,6.75,M,-32.64,M,,*5D
$GPRMC,021853.00,A,3725.582,N,12205.623,W,0.0,61.3,070220,,,A*58
$GPGGA,021854.00,3725.5821056,N,12205.6227322,W,1,14,0.9,6.75,M,-32.64,M,,*5A
$GPRMC,021854.00,A,3725.582,N,12205.623,W,0.0,61.3,070220,,,A*5D
$GPGGA,021855.00,3725.5821056,N,12205.6227322,W,1,14,0.9,6.75,M,-32.64,M,,*5B
$GPRMC,021855.00,A,3725.582,N,12205.623,W,0.0,61.3,070220,,,A*5E
$GPGGA,021856.00,3725.5821056,N,12205.6227322,W,1,14,0.9,6.75,M,-32.64,M,,*58
$GPRMC,021856.00,A,3725.582,N,12205.623,W,0.0,61.3,070220,,,A*24
$GPGGA,021857.00,3725.5821056,N,12205.6227322,W,1,14,0.9,6.75,M,-32.64,M,,*59
$GPRMC,021857.00,A,3725.582,N,12205.623,W,0.0,61.3,070220,,,A*25
$GPGGA,021858.00,3725.5821056,N,12205.6227322,W,1,14,0.9,6.75,M,-32.64,M,,*56
$GPRMC,021858.00,A,3725.582,N,12205.623,W,0.0,61.3,070220,,,A*2A
$GPGGA,021859.00,3725.5821056,N,12205.6227322,W,1,14,0.9,6.75,M,-32.64,M,,*57
$GPRMC,021859.00,A,3725.582,N,12205.623,W,0.0,61.3,070220,,,A*2B
$GPGGA,021900.00,3725.5821056,N,12205.6227322,W,1,14,0.9,6.75,M,-32.64,M,,*5A
$GPRMC,021900.00,A,3725.582,N,12205.623,W,0.0,61.3,070220,,,A*5D
$GPGGA,021901.00,3725.5821056,N,12205.6227322,W,1,14,0.9,6.75,M,-32.64,M,,*5B
$GPRMC,021901.00,A,3725.582,N,12205.623,W,0.0,61.3,070220,,,A*5E
$GPGGA,021902.00,3725.5821056,N,12205.6227322,W,1,14,0.9,6.75,M,-32.64,M,,*58
$GPRMC,021902.00,A,3725.582,N,12205.623,W,0.0,61.3,070220,,,A*24
$GPGGA,021903.00,3725.5821056,N,12205.6227322,W,1,14,0.9,6.75,M,-32.64,M,,*59
$GPRMC,021903.00,A,3725.582,N,12205.623,W,0.0,61.3,070220,,,A*25
$GPGGA,021904.00,3725.5821056,N,12205.6227322,W,1,14,0.9,6.75,M,-32.64,M,,*5E
$GPRMC,021904.00,A,3725.582,N,12205.623,W,0.0,61.3,070220,,,A*59
$GPGGA,021905.00,3725.5821056,N,12205.6227322,W,1,14,0.9,6.75,M,-32.64,M,,*5F
$GPRMC,021905.00,A,3725.582,N,12205.623,W,0.0,61.3,070220,,,A*5A
$GPGGA,021906.00,3725.5821056,N,12205.6227322,W,1,14,0.9,6.75,M,-32.64,M,,*5C
$GPRMC,021906.00,A,3725.582,N,12205.623,W,0.0,61.3,070220,,,A*5F
$GPGGA,021907.00,3725.5821056,N,12205.6227322,W,1,14,0.9,6.75,M,-32.64,M,,*5D
$GPRMC,021907.00,A,3725.582,N,12205.623,W,0.0,61.3,070220,,,A*58
$GPGGA,021908.00,3725.5821056,N,12205.6227322,W,1,14,0.9,6.75,M,-32.64,M,,*52
$GPRMC,021908.00,A,3725.582,N,12205.623,W,0.0,61.3,070220,,,A*2E
$GPGGA,021909.00,3725.5821058,N,12205.6227318,W,1,14,0.9,6.75,M,-32.64,M,,*54
$GPRMC,021909.00,A,3725.582,N,12205.623,W,0.0,61.3,070220,,,A*2F
$GPGGA,021910.00,3725.5821063,N,12205.6227310,W,1,14,0.9,6.75,M,-32.64,M,,*5C
$GPRMC,021910.00,A,3725.582,N,12205.623,W,0.0,61.3,070220,,,A*58
$GPGGA,021911.00,3725.5821064,N,12205.6227304,W,1,14,0.9,6.75,M,-32.64,M,,*5F
$GPRMC,021911.00,A,3725.582,N,12205.623,W,0.0,61.3,070220,,,A*5F
$GPGGA,021912.00,3725.5821061,N,12205.6227298,W,1,14,0.9,6.75,M,-32.64,M,,*5D
$GPRMC,021912.00,A,3725.582,N,12205.623,W,0.0,61.3,070220,,,A*5C
$GPGGA,021913.00,3725.5821052,N,12205.6227290,W,1,14,0.9,6.75,M,-32.64,M,,*54
$GPRMC,021913.00,A,3725.582,N,12205.623,W,0.0,61.3,070220,,,A*24
$GPGGA,021914.00,3725.5821036,N,12205.6227281,W,1,14,0.9,6.75,M,-32.64,M,,*51
$GPRMC,021914.00,A,3725.582,N,12205.623,W,0.0,61.3,070220,,,A*23
$GPGGA,021915.00,3725.5821028,N,12205.6227275,W,1,14,0.9,6.75,M,-32.64,M,,*54
$GPRMC,021915.00,A,3725.582,N,12205.623,W,0.0,61.3,070220,,,A*22
$GPGGA,021916.00,3725.5821026,N,12205.6227272,W,1,15,0.8,6.75,M,-32.64,M,,*5E
$GPRMC,021916.00,A,3725.582,N,12205.623,W,0.0,61.3,070220,,,A*5A
$GPGGA,021917.00,3725.5821028,N,12205.6227268,W,1,14,0.9,6.75,M,-32.64,M,,*5A
$GPRMC,021917.00,A,3725.582,N,12205.623,W,0.0,61.3,070220,,,A*5B
$GPGGA,021918.00,3725.5821030,N,12205.6227265,W,1,14,0.9,6.75,M,-32.64,M,,*51
$GPRMC,021918.00,A,3725.582,N,12205.623,W,0.0,61.3,070220,,,A*2F
$GPGGA,021919.00,3725.5821033,N,12205.6227264,W,1,14,0.9,6.75,M,-32.64,M,,*52
$GPRMC,021919.00,A,3725.582,N,12205.623,W,0.0,61.3,070220,,,A*2E
$GPGGA,021920.00,3725.5821033,N,12205.6227264,W,1,14,0.9,6.75,M,-32.64,M,,*58
$GPRMC,021920.00,A,3725.582,N,12205.623,W,0.0,61.3,070220,,,A*24
$GPGGA,021921.00,3725.5821033,N,12205.6227264,W,1,14,0.9,6.75,M,-32.64,M,,*59
$GPRMC,021921.00,A,3725.582,N,12205.623,W,0.0,61.3,070220,,,A*25
$GPGGA,021922.00,3725.5821033,N,12205.6227264,W,1,14,0.9,6.75,M,-32.64,M,,*5A
$GPRMC,021922.00,A,3725.582,N,12205.623,W,0.0,61.3,070220,,,A*5D
$GPGGA,021923.00,3725.5821033,N,12205.6227264,W,1,15,0.8,6.75,M,-32.64,M,,*5B
$GPRMC,021923.00,A,3725.582,N,12205.623,W,0.0,61.3,070220,,,A*5E
$GPGGA,021924.00,3725.5821033,N,12205.6227264,W,1,15,0.8,6.75,M,-32.64,M,,*5C
$GPRMC,021924.00,A,3725.582,N,12205.623,W,0.0,61.3,070220,,,A*5F
$GPGGA,021925.00,3725.5821033,N,12205.6227264,W,1,15,0.8,6.75,M,-32.64,M,,*5D
$GPRMC,021925.00,A,3725.582,N,12205.623,W,0.0,61.3,070220,,,A*58
$GPGGA,021926.00,3725.5821033,N,12205.6227264,W,1,15,0.8,6.75,M,-32.64,M,,*5E
$GPRMC,021926.00,A,3725.582,N,12205.623,W,0.0,61.3,070220,,,A*59
$GPGGA,021927.00,3725.5821033,N,12205.6227264,W,1,15,0.8,6.75,M,-32.64,M,,*5F
$GPRMC,021927.00,A,3725.582,N,12205.623,W,0.0,61.3,070220,,,A*5A
$GPGGA,021928.00,3725.5821033,N,12205.6227264,W,1,15,0.8,6.75,M,-32.64,M,,*50
$GPRMC,021928.00,A,3725.582,N,12205.623,W,0.0,61.3,070220,,,A*2C
$GPGGA,021929.00,3725.5821033,N,12205.6227264,W,1,15,0.8,6.75,M,-32.64,M,,*51
$GPRMC,021929.00,A,3725.582,N,12205.623,W,0.0,61.3,070220,,,A*2D
$GPGGA,021930.00,3725.5821033,N,12205.6227264,W,1,15,0.8,6.75,M,-32.64,M,,*59
$GPRMC,021930.00,A,3725.582,N,12205.623,W,0.0,61.3,070220,,,A*25
$GPGGA,021931.00,3725.5821033,N,12205.6227264,W,1,15,0.8,6.75,M,-32.64,M,,*58
$GPRMC,021931.00,A,3725.582,N,12205.623,W,0.0,61.3,070220,,,A*24
$GPGGA,021932.00,3725.5821033,N,12205.6227264,W,1,15,0.8,6.75,M,-32.64,M,,*5B
$GPRMC,021932.00,A,3725.582,N,12205.623,W,0.0,61.3,070220,,,A*5E
$GPGGA,021933.00,3725.5821033,N,12205.6227262,W,1,15,0.8,6.75,M,-32.64,M,,*5C
$GPRMC,021933.00,A,3725.582,N,12205.623,W,0.0,61.3,070220,,,A*59
$GPGGA,021934.00,3725.5821036,N,12205.6227257,W,1,15,0.8,6.75,M,-32.64,M,,*58
$GPRMC,021934.00,A,3725.582,N,12205.623,W,0.0,61.3,070220,,,A*21
$GPGGA,021935.00,3725.5821037,N,12205.6227252,W,1,15,0.8,6.75,M,-32.64,M,,*5D
$GPRMC,021935.00,A,3725.582,N,12205.623,W,0.0,61.3,070220,,,A*59
$GPGGA,021936.00,3725.5821041,N,12205.6227246,W,1,15,0.8,6.75,M,-32.64,M,,*5A
$GPRMC,021936.00,A,3725.582,N,12205.623,W,0.0,61.3,070220,,,A*58
$GPGGA,021937.00,3725.5821057,N,12205.6227236,W,1,15,0.8,6.75,M,-32.64,M,,*5B
$GPRMC,021937.00,A,3725.582,N,12205.623,W,0.0,61.3,070220,,,A*5B
$GPGGA,021938.00,3725.5821079,N,12205.6227221,W,1,15,0.8,6.75,M,-32.64,M,,*5E
$GPRMC,021938.00,A,3725.582,N,12205.623,W,0.0,61.3,070220,,,A*56
$GPGGA,021939.00,3725.5821089,N,12205.6227205,W,1,15,0.8,6.75,M,-32.64,M,,*56
$GPRMC,021939.00,A,3725.582,N,12205.623,W,0.0,61.3,070220,,,A*2C
$GPGGA,021940.00,3725.5821284,N,12205.6226673,W,1,15,0.8,6.75,M,-32.64,M,,*53
$GPRMC,021940.00,A,3725.582,N,12205.623,W,0.5,61.3,070220,,,A*27
$GPGGA,021941.00,3725.5823815,N,12205.6220074,W,1,14,0.9,6.76,M,-32.64,M,,*56
$GPRMC,021941.00,A,3725.582,N,12205.622,W,4.1,61.3,070220,,,A*27
$GPGGA,021942.00,3725.5830873,N,12205.6201718,W,1,15,0.8,6.79,M,-32.64,M,,*56
$GPRMC,021942.00,A,3725.583,N,12205.620,W,7.3,61.3,070220,,,A*26
$GPGGA,021943.00,3725.5840795,N,12205.6176150,W,1,15,0.8,6.83,M,-32.64,M,,*5B
$GPRMC,021943.00,A,3725.584,N,12205.618,W,8.8,60.9,070220,,,A*5D
$GPGGA,021944.00,3725.5852522,N,12205.6146720,W,1,15,0.8,6.84,M,-32.64,M,,*54
$GPRMC,021944.00,A,3725.585,N,12205.615,W,10.0,59.9,070220,,,A*14
$GPGGA,021945.00,3725.5866526,N,12205.6116280,W,1,15,0.8,6.87,M,-32.64,M,,*5F
$GPRMC,021945.00,A,3725.587,N,12205.612,W,10.1,54.7,070220,,,A*6B
$GPGGA,021946.00,3725.5883752,N,12205.6088762,W,1,14,0.9,6.91,M,-32.64,M,,*5E
$GPRMC,021946.00,A,3725.588,N,12205.609,W,10.0,45.0,070220,,,A*69
$GPGGA,021947.00,3725.5904849,N,12205.6066951,W,1,14,0.9,6.91,M,-32.64,M,,*5A
$GPRMC,021947.00,A,3725.590,N,12205.607,W,9.8,30.5,070220,,,A*58
$GPGGA,021948.00,3725.5929399,N,12205.6053516,W,1,14,0.9,6.93,M,-32.64,M,,*57
$GPRMC,021948.00,A,3725.593,N,12205.605,W,9.5,14.7,070220,,,A*24
$GPGGA,021949.00,3725.5954891,N,12205.6049921,W,1,14,0.9,6.97,M,-32.64,M,,*58
$GPRMC,021949.00,A,3725.595,N,12205.605,W,9.0,356.3,070220,,,A*17
$GPGGA,021950.00,3725.5976904,N,12205.6058205,W,1,14,0.9,6.94,M,-32.64,M,,*53
$GPRMC,021950.00,A,3725.598,N,12205.606,W,7.8,330.4,070220,,,A*10
$GPGGA,021951.00,3725.5991483,N,12205.6077466,W,1,14,0.9,6.88,M,-32.64,M,,*5A
$GPRMC,021951.00,A,3725.599,N,12205.608,W,7.7,300.5,070220,,,A*68
$GPGGA,021952.00,3725.5995991,N,12205.6103745,W,1,14,0.9,6.80,M,-32.64,M,,*5B
$GPRMC,021952.00,A,3725.600,N,12205.610,W,8.0,269.9,070220,,,A*69
$GPGGA,021953.00,3725.5990144,N,12205.6132716,W,1,14,0.9,6.75,M,-32.64,M,,*51
$GPRMC,021953.00,A,3725.599,N,12205.613,W,9.4,246.9,070220,,,A*19
$GPGGA,021954.00,3725.5978517,N,12205.6165233,W,1,14,0.9,6.73,M,-32.64,M,,*54
$GPRMC,021954.00,A,3725.598,N,12205.617,W,11.0,242.6,070220,,,A*2D
$GPGGA,021955.00,3725.5964669,N,12205.6202658,W,1,14,0.9,6.67,M,-32.64,M,,*5C
$GPRMC,021955.00,A,3725.596,N,12205.620,W,12.6,242.3,070220,,,A*59
$GPGGA,021956.00,3725.5949619,N,12205.6244293,W,1,15,0.8,6.60,M,-32.64,M,,*51
$GPRMC,021956.00,A,3725.595,N,12205.624,W,13.3,243.0,070220,,,A*24
$GPGGA,021957.00,3725.5934704,N,12205.6286995,W,1,15,0.8,6.55,M,-32.64,M,,*52
$GPRMC,021957.00,A,3725.593,N,12205.629,W,13.3,243.9,070220,,,A*27
$GPGGA,021958.00,3725.5920973,N,12205.6329077,W,1,15,0.8,6.46,M,-32.64,M,,*55
$GPRMC,021958.00,A,3725.592,N,12205.633,W,12.7,245.3,070220,,,A*2B
$GPGGA,021959.00,3725.5908833,N,12205.6367556,W,1,15,0.8,6.42,M,-32.64,M,,*53
$GPRMC,021959.00,A,3725.591,N,12205.637,W,10.8,245.4,070220,,,A*27
$GPGGA,022000.00,3725.5899185,N,12205.6397614,W,1,15,0.8,6.43,M,-32.64,M,,*53
$GPRMC,022000.00,A,3725.590,N,12205.640,W,7.6,244.9,070220,,,A*14
$GPGGA,022001.00,3725.5892813,N,12205.6416994,W,1,15,0.8,6.43,M,-32.64,M,,*56
$GPRMC,022001.00,A,3725.589,N,12205.642,W,4.4,244.3,070220,,,A*14
$GPGGA,022002.00,3725.5888292,N,12205.6430202,W,1,15,0.8,6.40,M,-32.64,M,,*5E
$GPRMC,022002.00,A,3725.589,N,12205.643,W,4.3,242.9,070220,,,A*66
$GPGGA,022003.00,3725.5881480,N,12205.6444961,W,1,14,0.9,6.34,M,-32.64,M,,*5D
$GPRMC,022003.00,A,3725.588,N,12205.644,W,5.7,234.5,070220,,,A*6B
$GPGGA,022004.00,3725.5868658,N,12205.6460694,W,1,14,0.9,6.27,M,-32.64,M,,*5B
$GPRMC,022004.00,A,3725.587,N,12205.646,W,7.4,215.0,070220,,,A*66
$GPGGA,022005.00,3725.5847470,N,12205.6470427,W,1,14,0.9,6.19,M,-32.64,M,,*59
$GPRMC,022005.00,A,3725.585,N,12205.647,W,8.9,188.1,070220,,,A*19
$GPGGA,022006.00,3725.5821758,N,12205.6466645,W,1,14,0.9,6.15,M,-32.64,M,,*5E
$GPRMC,022006.00,A,3725.582,N,12205.647,W,9.8,162.4,070220,,,A*67
$GPGGA,022007.00,3725.5795618,N,12205.6452901,W,1,13,1.0,6.17,M,-32.64,M,,*5F
$GPRMC,022007.00,A,3725.580,N,12205.645,W,10.5,152.4,070220,,,A*52
$GPGGA,022008.00,3725.5769231,N,12205.6436767,W,1,13,1.0,6.17,M,-32.64,M,,*50
$GPRMC,022008.00,A,3725.577,N,12205.644,W,10.6,150.8,070220,,,A*20
$GPGGA,022009.00,3725.5743780,N,12205.6420438,W,1,13,1.0,6.05,M,-32.64,M,,*5B
$GPRMC,022009.00,A,3725.574,N,12205.642,W,10.2,149.7,070220,,,A*5E
$GPGGA,022010.00,3725.5718141,N,12205.6403320,W,1,12,1.2,5.69,M,-32.64,M,,*53
$GPRMC,022010.00,A,3725.572,N,12205.640,W,10.8,148.6,070220,,,A*21
$GPGGA,022011.00,3725.5692285,N,12205.6385371,W,1,12,1.2,5.16,M,-32.64,M,,*5F
$GPRMC,022011.00,A,3725.569,N,12205.639,W,10.3,147.6,070220,,,A*59
$GPGGA,022012.00,3725.5667795,N,12205.6368752,W,1,12,1.2,4.67,M,-32.64,M,,*53
$GPRMC,022012.00,A,3725.567,N,12205.637,W,9.8,149.6,070220,,,A*1E
$GPGGA,022013.00,3725.5642977,N,12205.6354466,W,1,15,0.8,4.17,M,-32.64,M,,*57
$GPRMC,022013.00,A,3725.564,N,12205.635,W,9.8,153.8,070220,,,A*1B
$GPGGA,022014.00,3725.5618636,N,12205.6344273,W,1,12,1.2,3.76,M,-32.64,M,,*5A
$GPRMC,022014.00,A,3725.562,N,12205.634,W,8.2,160.8,070220,,,A*6B
$GPGGA,022015.00,3725.5597258,N,12205.6339875,W,1,12,1.2,3.51,M,-32.64,M,,*50
$GPRMC,022015.00,A,3725.560,N,12205.634,W,7.9,171.2,070220,,,A*1D
$GPGGA,022016.00,3725.5575570,N,12205.6341833,W,1,12,1.2,3.30,M,-32.64,M,,*58
$GPRMC,022016.00,A,3725.558,N,12205.634,W,7.4,185.5,070220,,,A*14
$GPGGA,022017.00,3725.5558266,N,12205.6348826,W,1,12,1.2,3.15,M,-32.64,M,,*5C
$GPRMC,022017.00,A,3725.556,N,12205.635,W,5.6,198.0,070220,,,A*6C
$GPGGA,022018.00,3725.5547131,N,12205.6356420,W,1,12,1.2,3.07,M,-32.64,M,,*5A
$GPRMC,022018.00,A,3725.555,N,12205.636,W,3.5,206.7,070220,,,A*61
$GPGGA,022019.00,3725.5541310,N,12205.6361548,W,1,12,1.2,3.03,M,-32.64,M,,*53
$GPRMC,022019.00,A,3725.554,N,12205.636,W,2.2,211.4,070220,,,A*19
$GPGGA,022020.00,3725.5534420,N,12205.6367902,W,1,12,1.2,2.94,M,-32.64,M,,*54
$GPRMC,022020.00,A,3725.553,N,12205.637,W,4.0,212.4,070220,,,A*12
$GPGGA,022021.00,3725.5523721,N,12205.6375896,W,1,12,1.2,2.86,M,-32.64,M,,*5D
$GPRMC,022021.00,A,3725.552,N,12205.638,W,5.4,205.8,070220,,,A*6B
$GPGGA,022022.00,3725.5507340,N,12205.6382267,W,1,12,1.2,2.90,M,-32.64,M,,*50
$GPRMC,022022.00,A,3725.551,N,12205.638,W,6.9,189.6,070220,,,A*15
$GPGGA,022023.00,3725.5486206,N,12205.6381712,W,1,12,1.2,2.96,M,-32.64,M,,*58
